,CASE_STATUS,EMPLOYER_NAME,SOC_NAME,JOB_TITLE,FULL_TIME_POSITION,PREVAILING_WAGE,YEAR,WORKSITE,lon,lat
24,CERTIFIED,UC UNIVERSITY HIGH SCHOOL EDUCATION INC.,CHIEF EXECUTIVES,CHIEF FINANCIAL OFFICER,Y,99986,2016,"CHULA VISTA, CALIFORNIA",-117.0841955,32.6400541
28,CERTIFIED,HELLO INC.,CHIEF EXECUTIVES,CHIEF BUSINESS OFFICER,Y,215862,2016,"SAN FRANCISCO, CALIFORNIA",-122.4194155,37.7749295
30,CERTIFIED,"PERSPECTIVES OF FREEDOM FOUNDATION, INC",CHIEF EXECUTIVES,EXECUTIVE DIRECTOR,Y,95295.98,2016,"WESTON, FLORIDA",-80.3997748,26.1003654
31,CERTIFIED,GTH INC.,CHIEF EXECUTIVES,"VICE PRESIDENT, BUSINESS DEVELOPMENT",Y,149594,2016,"WASHINGTON, DISTRICT OF COLUMBIA",-77.0368707,38.9071923
32,CERTIFIED,THE KRAFT HEINZ COMPANY,CHIEF EXECUTIVES,HEAD OF US SALES,Y,226699,2016,"CHICAGO, ILLINOIS",-87.6297982,41.8781136
35,CERTIFIED,"FINLAY EXTRACTS & INGREDIENTS USA, INC.",CHIEF EXECUTIVES,VICE PRESIDENT OF OPERATIONS,Y,98550,2016,"LINCOLN, RHODE ISLAND",-71.4418101,41.9110123
37,CERTIFIED,LABEL INSIGHT,CHIEF EXECUTIVES,CHIEF EXECUTIVE OFFICER,Y,130853,2016,"CHICAGO, ILLINOIS",-87.6297982,41.8781136
38,CERTIFIED,INN AT THE WICKLIFFE LLC,CHIEF EXECUTIVES,CHIEF EXECUTIVE OFFICER,N,52416,2016,"WICKLIFFE, OHIO",-81.4534492,41.6053266
39,CERTIFIED,"DURHAM SCHOOL SERVICES, LP",CHIEF EXECUTIVES,"VICE PRESIDENT, FINANCE AND OPERATIONS ANALYSIS",Y,130853,2016,"WARRENVILLE, ILLINOIS",-88.1734021,41.817807
42,CERTIFIED,"SOFTTEK INTEGRATION SYSTEMS, INC.",CHIEF EXECUTIVES,ACCOUNT DIRECTOR,Y,130853,2016,"NORTHBROOK, ILLINOIS",-87.8289548,42.1275267
43,CERTIFIED,"SPARITY, INC.",CHIEF EXECUTIVES,TECHNICAL DIRECTOR,Y,102190,2016,"ALPHARETTA, GEORGIA",-84.2940899,34.0753762
44,CERTIFIED,"ADCONION DIRECT, INC.",CHIEF EXECUTIVES,VICE PRESIDENT OF OPERATIONS,Y,197683,2016,"SOLANA BEACH, CALIFORNIA",-117.2711481,32.991155
46,CERTIFIED,"THE CHICAGO ATHENAEUM: CENTER FOR ARCHITECTURE, DESIGN & URBAN STUDIES",CHIEF EXECUTIVES,EXECUTIVE DIRECTOR,N,54766,2016,"GALENA, ILLINOIS",NA,NA
47,CERTIFIED,MED ADVANTAGE LLC,CHIEF EXECUTIVES,CHIEF FINANCIAL OFFICER,Y,187200,2016,"BLOOMFIELD, NEW JERSEY",-74.1854209,40.8067546
49,CERTIFIED,"STRATEGISM, INC.",CHIEF EXECUTIVES,CHIEF EXECUTIVE OFFICER,Y,155459.2,2016,"FREMONT, CALIFORNIA",-121.9885719,37.5482697
53,CERTIFIED,"PAXTERRA SOLUTIONS, INC.",CHIEF EXECUTIVES,"ASSISTANT VICE PRESIDENT, BUSINESS DEVELOPMENT",Y,102190,2016,"JOHNS CREEK, GEORGIA",-84.198579,34.0289259
55,CERTIFIED,VARIANTYX INC.,CHIEF EXECUTIVES,CHIEF INFORMATION OFFICER,Y,164403,2016,"ASHLAND, MASSACHUSETTS",NA,NA
56,CERTIFIED,NATURAL AMERICAN FOODS INC.,CHIEF EXECUTIVES,VICE PRESIDENT OF QUALITY,Y,145829,2016,"ONSTED, MICHIGAN",NA,NA
62,CERTIFIED,"SENSORHOUND, INC.",CHIEF EXECUTIVES,CHIEF EXECUTIVE OFFICER AND RESEARCH SCIENTIST,Y,76752,2016,"WEST LAFAYETTE, INDIANA",-86.9080655,40.4258686
64,CERTIFIED,MAX PLANCK FLORIDA CORPORATION,CHIEF EXECUTIVES,CHIEF OPERATING OFFICER,Y,187200,2016,"JUPITER, FLORIDA",-80.0942087,26.9342246
65,CERTIFIED,MAX PLANCK FLORIDA CORPORATION,CHIEF EXECUTIVES,CHIEF OPERATING OFFICER,Y,226616,2016,"JUPITER, FLORIDA",-80.0942087,26.9342246
67,CERTIFIED,"HBN MEDIA, INC.",CHIEF EXECUTIVES,CHIEF OPERATING OFFICER,Y,198266,2016,"MARIETTA, GEORGIA",-84.5499327,33.952602
68,CERTIFIED,ADVENTIST HEALTH SYSTEM SUNBELT,CHIEF EXECUTIVES,REGIONAL CHIEF MEDICAL INFORMATION OFFICER,Y,221541,2016,"ALTAMONTE SPRINGS, FLORIDA",-81.3656242,28.6611089
74,CERTIFIED,RIVIAN AUTOMOTIVE LLC,CHIEF EXECUTIVES,CHIEF STRATEGY OFFICER,Y,194875,2016,"LIVONIA, MICHIGAN",-83.3527097,42.36837
81,CERTIFIED,HARIBOO FOOD 2004 INC,CHIEF EXECUTIVES,VP MARKETING (IMPORT/EXPORT,Y,159369.6,2016,"HIALEAH, FLORIDA",-80.2781057,25.8575963
84,CERTIFIED,TOTAL CIVIL CONSTRUCTION & ENGINEERING LLC,CHIEF EXECUTIVES,VICE PRESIDENT,Y,103480,2016,"LANHAM, MARYLAND",-76.8620327,38.9685112
85,CERTIFIED,FYBR LLC,CHIEF EXECUTIVES,CHIEF TECHNOLOGY OFFICER,Y,151507,2016,"CHESTERFIELD, MISSOURI",-90.5770675,38.6631083
86,CERTIFIED,TOTAL CIVIL CONSTRUCTION & ENGINEERING LLC,CHIEF EXECUTIVES,VICE PRESIDENT,Y,103480,2016,"LANHAM, MARYLAND",-76.8620327,38.9685112
87,CERTIFIED,"GREENLAM AMERICA, INC.",CHIEF EXECUTIVES,CHIEF OPERATING OFFICER,Y,159370,2016,"DORAL, FLORIDA",-80.3553302,25.8195424
90,CERTIFIED,"RINA SYSTEMS, LLC",CHIEF EXECUTIVES,CHIEF FINANCIAL OFFICER,Y,155958,2016,"CINCINNATI, OHIO",-84.5120196,39.1031182
95,CERTIFIED,HARBAR LLC,CHIEF EXECUTIVES,CFO & VP BUSINESS DEVELOPMENT,Y,254821,2016,"CANTON, MASSACHUSETTS",-71.1447732,42.1584324
98,CERTIFIED,SD MANAGEMENT GROUP LLC,CHIEF EXECUTIVES,CHIEF SUSTAINABILITY OFFICER,N,17264,2016,"CHARLOTTESVILLE, VIRGINIA",-78.4766781,38.0293059
105,CERTIFIED,ONMOBILE USA LLC,CHIEF EXECUTIVES,SENIOR VP - GLOBAL CONTENT AND MULTI-MEDIA STRATEGY,Y,210122,2016,"SANTA MONICA, CALIFORNIA",-118.4911912,34.0194543
108,CERTIFIED,"CORO INVESTMENTS, LP",CHIEF EXECUTIVES,"VICE PRESIDENT, USA OPERATIONS",Y,103480,2016,"RESTON, VIRGINIA",-77.3570028,38.9586307
115,CERTIFIED,"ASTELLAS PHARMA US, INC.",CHIEF EXECUTIVES,"EXECUTIVE DIRECTOR, INTERNATIONAL BUSINESS",Y,226699,2016,"NORTHBROOK, ILLINOIS",-87.8289548,42.1275267
116,CERTIFIED,STRYKER CORPORATION,CHIEF EXECUTIVES,"VP, GLOBAL IT GOVERNANCE & PERFORMANCE MEASUREMENT",Y,189862,2016,"KALAMAZOO, MICHIGAN",-85.5872286,42.2917069
118,CERTIFIED,NORTHWELL HEALTH,CHIEF EXECUTIVES,VP INTERNATIONAL BUSINESS DEVELOPMENT,Y,252429,2016,"NEW YORK, NEW YORK",-74.0059413,40.7127837
119,CERTIFIED,HARIBO FOOD 2004 INC,CHIEF EXECUTIVES,VP MARKETING (IMPORT/EXPORT),Y,159369.6,2016,"HIALEAH, FLORIDA",-80.2781057,25.8575963
120,CERTIFIED,UGAM SOLUTIONS SEZ PVT. LTD,CHIEF EXECUTIVES,ASSISTANT VICE PRESIDENT,Y,102190,2016,"ATLANTA, GEORGIA",-84.3879824,33.7489954
121,CERTIFIED,"PREVEIL, LLC",CHIEF EXECUTIVES,CHIEF TECHNICAL OFFICER,Y,155459.2,2016,"BERKELEY, CALIFORNIA",-122.272747,37.8715926
122,CERTIFIED,AMERICAN PUBLIC TRANSPORTATION ASSOCIATION,CHIEF EXECUTIVES,CHIEF OF STAFF,Y,195728,2016,"WASHINGTON, DISTRICT OF COLUMBIA",-77.0368707,38.9071923
124,CERTIFIED,MILK SPECIALTIES GLOBAL,CHIEF EXECUTIVES,"VICE PRESIDENT, INTERNATIONAL SALES, HUMAN NUTRITION",Y,146300,2016,"EDEN PRAIRIE, MINNESOTA",-93.470786,44.8546856
130,CERTIFIED,RIGHTSIDE OPERATING CO,CHIEF EXECUTIVES,"ELECTRICAL ENGINEER, CHIEF TECHNOLOGY OFFICER",Y,229133,2016,"KIRKLAND, WASHINGTON",-122.2059833,47.6768927
131,CERTIFIED,ENGINE CONTROL SYSTEMS LIMITED,CHIEF EXECUTIVES,VICE PRESIDENT OF RESEARCH AND ENGINEERING,Y,106933,2016,"OXNARD, CALIFORNIA",-119.1770516,34.1975048
132,CERTIFIED,"SHIRE PHARMACEUTICALS, LLC",CHIEF EXECUTIVES,CHIEF EXECUTIVE OFFICER,Y,254821,2016,"LEXINGTON, MASSACHUSETTS",-71.2289641,42.4430372
135,CERTIFIED,"FINCH PAPER, LLC",CHIEF EXECUTIVES,"VICE PRESIDENT, FORESTRY & WOOD PROCUREMENT",Y,145038,2016,"GLENS FALLS, NEW YORK",NA,NA
137,CERTIFIED,"PROFESSIONAL TOOL GRINDING, INC.",CHIEF EXECUTIVES,VP OF MANUFACTURING,Y,111842,2016,"SOUTH EASTON, MASSACHUSETTS",NA,NA
140,CERTIFIED,LIGHT & STAR USA INC,CHIEF EXECUTIVES,CHIEF FINANACIAL OFFICER,N,70000,2016,"NEW YORK, NEW YORK",-74.0059413,40.7127837
142,CERTIFIED,ASCENTIUM CORPORATION,CHIEF EXECUTIVES,CHIEF EXECUTIVE OFFICER/CHIEF TECHNOLOGY OFFICER,Y,229133,2016,"SEATTLE, WASHINGTON",-122.3320708,47.6062095
145,CERTIFIED,"GLOBAL CONVERGENCE, INC.",CHIEF EXECUTIVES,SENIOR VICE PRESIDENT OF GLOBAL SERVICE DELIVERY,Y,113693,2016,"OLDSMAR, FLORIDA",-82.6650992,28.0341847
148,CERTIFIED,EXCLUSIVE RESORTS LLC,CHIEF EXECUTIVES,FULL-TIME CHAIRMAN OF THE BOARD,Y,187200,2016,"DENVER, COLORADO",-104.990251,39.7392358
149,CERTIFIED,"BON WORTH, INC.",CHIEF EXECUTIVES,CHIEF OPERATING OFFICER,Y,125424,2016,"HENDERSONVILLE, NORTH CAROLINA",NA,NA
150,CERTIFIED,"UT-BATTELLE, LLC (OAK RIDGE NATIONAL LABORATORY)",CHIEF EXECUTIVES,"DIRECTOR, BIOLOGY AND SOFT MATTER DIVISION",Y,178859,2016,"OAK RIDGE, TENNESSEE",-84.2696449,36.0103561
151,CERTIFIED,"ACME INTERNATIONAL, LLC",CHIEF EXECUTIVES,VICE PRESIDENT,Y,118061,2016,"SUNRISE, FLORIDA",-80.256595,26.1669711
154,CERTIFIED,PARKLOCO INC.,CHIEF EXECUTIVES,CHIEF EXECUTIVE OFFICER,Y,119184,2016,"BOSTON, MASSACHUSETTS",-71.0588801,42.3600825
158,CERTIFIED,FOSS WATERWAY SEAPORT,CHIEF EXECUTIVES,EXECUTIVE DIRECTOR,Y,89690,2016,"TACOMA, WASHINGTON",-122.4442906,47.2528768
161,CERTIFIED,GASTON J GLOCK STYLE LP,CHIEF EXECUTIVES,CHIEF EXECUTIVE OFFICER,Y,102190.4,2016,"SMYRNA, GEORGIA",-84.5143761,33.8839926
162,CERTIFIED,"T-LIGO USA, LLC",CHIEF EXECUTIVES,EXECUTIVE DIRECTOR,Y,136323.2,2016,"ORLANDO, FLORIDA",-81.3792365,28.5383355
163,CERTIFIED,GETMYRX INC.,CHIEF EXECUTIVES,CHIEF EXECUTIVE OFFICER,Y,159370,2016,"MIAMI, FLORIDA",-80.1917902,25.7616798
166,CERTIFIED,"MORRISON USA, LLC",CHIEF EXECUTIVES,CHIEF BUSINESS DEVELOPING OFFICER,Y,113090,2016,"MIAMI, FLORIDA",-80.1917902,25.7616798
168,CERTIFIED,LOS COMALES INC,CHIEF EXECUTIVES,CHIEF FINANCIAL OFFICER,Y,90875,2016,"GREELEY, COLORADO",-104.7091322,40.4233142
170,CERTIFIED,HONEY SCIENCE CORPORATION,CHIEF EXECUTIVES,CHIEF TECHNOLOGY OFFICER,Y,117998,2016,"LOS ANGELES, CALIFORNIA",-118.2436849,34.0522342
174,CERTIFIED,PI CHARGING INC.,CHIEF EXECUTIVES,CHIEF EXECUTIVE OFFICER,Y,215862,2016,"MENLO PARK, CALIFORNIA",-122.1817252,37.4529598
175,CERTIFIED,"EXYN TECHNOLOGIES, INC.",CHIEF EXECUTIVES,CHIEF EXECUTIVE OFFICER,Y,187200,2016,"PHILADELPHIA, PENNSYLVANIA",-75.1652215,39.9525839
186,CERTIFIED,"ROUSH MANAGEMENT, L.L.C.",CHIEF EXECUTIVES,ENTERTAINMENT SYSTEMS ENGINEERING (ESE) DIRECTOR,Y,150779,2016,"LIVONIA, MICHIGAN",-83.3527097,42.36837
187,CERTIFIED,"SWIFT BEEF COMPANY, A JBS USA SUBSIDIARY",CHIEF EXECUTIVES,HEAD OF STRATEGY,Y,143458,2016,"GREELEY, COLORADO",-104.7091322,40.4233142
190,CERTIFIED,"MOON RIVER FOODS, INC.",CHIEF EXECUTIVES,VICE PRESIDENT OF OPERATIONS,N,45240,2016,"INDIANOLA, MISSISSIPPI",NA,NA
192,CERTIFIED,"UFI FILTERS USA, INC.",CHIEF EXECUTIVES,CHIEF OPERATING OFFICER - AMERICAS,Y,235518,2016,"TROY, MICHIGAN",-83.1497751,42.6064095
197,CERTIFIED,"DELAWARE CONSULTING US, INC.",CHIEF EXECUTIVES,OPEN TEXT STREAMSERVE CONSULTING MANAGER,Y,102190,2016,"ALPHARETTA, GEORGIA",-84.2940899,34.0753762
202,CERTIFIED,"PURCH GROUP, INC.",CHIEF EXECUTIVES,SENIOR VICE-PRESIDENT & GENERAL MANAGER,Y,156104,2016,"OGDEN, UTAH",-111.9738304,41.223
203,CERTIFIED,AERAS,CHIEF EXECUTIVES,CHIEF EXECUTIVE OFFICER,Y,187200,2016,"ROCKVILLE, MARYLAND",-77.1527578,39.0839973
204,CERTIFIED,"AVGOL AMERICA, INC.",CHIEF EXECUTIVES,VICE PRESIDENT OF PURCHASING AND LOGISTICS,Y,155397,2016,"MOCKSVILLE, NORTH CAROLINA",NA,NA
206,CERTIFIED,HOTEL CONNECTIONS INC.,CHIEF EXECUTIVES,CHIEF OPERATIONS OFFICER,Y,205629,2016,"MIAMI, FLORIDA",-80.1917902,25.7616798
207,CERTIFIED,CURSELL LLC,CHIEF EXECUTIVES,CHIEF OPERATING OFFICER,Y,118061,2016,"HALLANDALE, FLORIDA",-80.148379,25.9812024
208,CERTIFIED,CURSELL LLC,CHIEF EXECUTIVES,CHIEF OPERATING OFFICER (COO),Y,118061,2016,"HALLANDALE BEACH, FLORIDA",-80.148379,25.9812024
213,CERTIFIED,ALTISOURCE ASSET MANAGEMENT CORPORATION,CHIEF EXECUTIVES,CHIEF FINANCIAL OFFICER,Y,180502,2016,"CHRISTIANSTED, NA",-64.7031977,17.7466397
214,CERTIFIED,PARKLOCO INC.,CHIEF EXECUTIVES,CHIEF MANAGEMENT OFFICER,Y,119184,2016,"BOSTON, MASSACHUSETTS",-71.0588801,42.3600825
218,CERTIFIED,"TELEMUNDO MEDIA, LLC",CHIEF EXECUTIVES,SVP TALENT MANAGEMENT,Y,251909,2016,"MIAMI, FLORIDA",-80.1917902,25.7616798
220,CERTIFIED,SOFTMARKETING CORPORATION,CHIEF EXECUTIVES,BUSINESS MANAGER,Y,113090,2016,"MIAMI, FLORIDA",-80.1917902,25.7616798
223,CERTIFIED,"FRANKE FOODSERVICE SOLUTIONS, INC.",CHIEF EXECUTIVES,PRESIDENT OF SOLUTIONS,Y,210933,2016,"SMYRNA, TENNESSEE",-86.5186045,35.9828412
225,CERTIFIED,"FRANKE FOODSERVICE SOLUTIONS, INC.",CHIEF EXECUTIVES,PRESIDENT OF SOLUTIONS,Y,210933,2016,"SMYRNA, TENNESSEE",-86.5186045,35.9828412
227,CERTIFIED,PARKLOCO INC.,CHIEF EXECUTIVES,CHIEF MARKETING OFFICER,Y,119184,2016,"BOSTON, MASSACHUSETTS",-71.0588801,42.3600825
228,CERTIFIED,CALIFORNIA GALVANIZING AND STEEL STRUCTURES INC.,CHIEF EXECUTIVES,CHIEF EXECUTIVE OFFICER/CHIEF FINANCIAL OFFICER,Y,99986,2016,"CHULA VISTA, CALIFORNIA",-117.0841955,32.6400541
232,CERTIFIED,OPUS DYNAMIC LLC,CHIEF EXECUTIVES,"SENIOR VICE PRESIDENT, HEAD OF SERVICE DESIGN & MOBILIZATION",Y,235518,2016,"BEVERLY HILLS, MICHIGAN",NA,NA
241,CERTIFIED,H & L INNOVATIONS LLC,CHIEF EXECUTIVES,CFO AND INTERNATIONAL RELATIONS MANAGER,N,64875,2016,"MADISON, WISCONSIN",-89.4012302,43.0730517
243,CERTIFIED,X-DRILL INC,CHIEF EXECUTIVES,"VICE PRESIDENT, QUALITY, HEALTH & SAFETY",Y,187200,2016,"HOUSTON, TEXAS",-95.3698028,29.7604267
245,CERTIFIED,SOFTMARKETING CORPORATION,CHIEF EXECUTIVES,BUSINESS MANAGER,Y,113090,2016,"MIAMI, FLORIDA",-80.1917902,25.7616798
249,CERTIFIED,"PRONTO GENERAL AGENCY, LTD.",CHIEF EXECUTIVES,PRESIDENT,Y,161179,2016,"BROWNSVILLE, TEXAS",-97.4974838,25.9017472
252,CERTIFIED,"SNAPRAYS, LLC",CHIEF EXECUTIVES,CHIEF EXECUTIVE OFFICER,N,66373,2016,"VINEYARD, UTAH",NA,NA
253,CERTIFIED,ZENEDGE INC,CHIEF EXECUTIVES,CHIEF OPERATING OFFICER,Y,113089.6,2016,"AVENTURA, FLORIDA",-80.1392121,25.9564812
255,CERTIFIED,SYSTEM LOGISTICS CORPORATION,CHIEF EXECUTIVES,CHIEF EXECUTIVE OFFICER,Y,92518,2016,"GRAND RAPIDS, MICHIGAN",-85.6680863,42.9633599
256,CERTIFIED,"AGLYTIX, INC.",CHIEF EXECUTIVES,CHIEF OPERATING OFFICER,Y,174408,2016,"MANKATO, MINNESOTA",-93.9993996,44.1635775
263,CERTIFIED,"OFF CENTER RESTAURANT GROUP, LLC",CHIEF EXECUTIVES,CHIEF EXECUTIVE OFFICER,Y,113090,2016,"MIAMI, FLORIDA",-80.1917902,25.7616798
266,CERTIFIED,"MILLENNIUM ADVISORS, LLC",CHIEF EXECUTIVES,DIRECTOR ETF TRADING & CREDIT MARKETS,Y,187199,2016,"CHARLOTTE, NORTH CAROLINA",-80.8431267,35.2270869
267,CERTIFIED,MYCHILD INC.,CHIEF EXECUTIVES,CEO & SYSTEMS MANAGER,Y,82930,2016,"CHICAGO, ILLINOIS",-87.6297982,41.8781136
268,CERTIFIED,"KONCERT IT TECHNOLOGY SOLUTIONS, LLC",CHIEF EXECUTIVES,E-COMMERCE DIRECTOR,Y,252158.4,2016,"CINCINNATI, OHIO",-84.5120196,39.1031182
270,CERTIFIED,"CHARTA GLOBAL, INC.",CHIEF EXECUTIVES,MANAGING DIRECTOR/MARKETING - AMERICAS,Y,198266,2016,"ATLANTA, GEORGIA",-84.3879824,33.7489954
274,CERTIFIED,CELGENE CORPORATION,CHIEF EXECUTIVES,"SVP, WORLDWIDE MARKETS, I&I",Y,187200,2016,"SUMMIT, NEW JERSEY",-74.3646122,40.7146376
276,CERTIFIED,HERBSTREITH & FOX INC.,CHIEF EXECUTIVES,EXECUTIVE VICE PRESIDENT,Y,187200,2016,"ELMSFORD, NEW YORK",-73.8201337,41.0550969
277,CERTIFIED,"KONCERT IT SOLUTIONS, LLC",CHIEF EXECUTIVES,E-COMMERCE DIRECTOR,Y,252158.4,2016,"CINCINNATI, OHIO",-84.5120196,39.1031182
279,CERTIFIED,"PLASCO, LLC",CHIEF EXECUTIVES,DIRECTOR INTERNATIONAL STRATEGIC INITIATIVES,Y,159370,2016,"MIAMI, FLORIDA",-80.1917902,25.7616798
281,CERTIFIED,BARRY'S BOOTCAMP HOLDINGS LLC,CHIEF EXECUTIVES,CHIEF MARKETING OFFICER,Y,210122,2016,"LOS ANGELES, CALIFORNIA",-118.2436849,34.0522342
282,CERTIFIED,WILD SOUL LLC,CHIEF EXECUTIVES,EXECUTIVE DIRECTOR,Y,113090,2016,"KEY BISCAYNE, FLORIDA",-80.1628248,25.693713
284,CERTIFIED,THE MORGRIDGE INSTITUTE FOR RESEARCH INC.,CHIEF EXECUTIVES,DIRECTOR - MEDICAL ENGINEERING,Y,218733,2016,"MADISON, WISCONSIN",-89.4012302,43.0730517
285,CERTIFIED,WILLOWBRIDGE ASSOCIATES INC.,CHIEF EXECUTIVES,CHIEF RISK OFFICER,Y,187200,2016,"PLAINSBORO, NEW JERSEY",-74.585292,40.3382543
287,CERTIFIED,"DERMATOLOGIC COSMETIC LABORATORIES, LTD.",CHIEF EXECUTIVES,PRESIDENT/CEO,Y,151778,2016,"EAST HAVEN, CONNECTICUT",NA,NA
288,CERTIFIED,ALTO USA LLC,CHIEF EXECUTIVES,CEO,Y,205629,2016,"MIAMI, FLORIDA",-80.1917902,25.7616798
291,CERTIFIED,"KAUTEX MACHINES, INC.",CHIEF EXECUTIVES,CHIEF EXECUTIVES,Y,187200,2016,"NORTH BRANCH, NEW JERSEY",NA,NA
293,CERTIFIED,"THRU RAINBOW, LLC",CHIEF EXECUTIVES,CHIEF EXECUTIVE OFFICER,Y,102190,2016,"JACKSONVILLE, FLORIDA",-81.655651,30.3321838
297,CERTIFIED,"LASSONDE PAPPAS AND COMPANY, INC.",CHIEF EXECUTIVES,CHIEF EXECUTIVE OFFICER,Y,247832,2016,"CARNEYS POINT, NEW JERSEY",NA,NA
299,CERTIFIED,"UNIVERSITY OF CALIFORNIA, LOS ANGELES",CHIEF EXECUTIVES,ASSO. VICE CHANCELLOR FOR INTEL. PROP. AND IND. SPON. RES.,Y,91312,2016,"LOS ANGELES, CALIFORNIA",-118.2436849,34.0522342
300,CERTIFIED,"VITASOY USA, INC.",CHIEF EXECUTIVES,PRESIDENT & CHIEF EXECUTIVE OFFICER,Y,209602,2016,"WOBURN, MASSACHUSETTS",-71.1522765,42.4792618
302,CERTIFIED,HEALTHJUMP INC,CHIEF EXECUTIVES,CHIEF EXECUTIVE OFFICER,Y,187200,2016,"PHOENIXVILLE, PENNSYLVANIA",-75.5149128,40.1303822
304,CERTIFIED,AGCO CORPORATION,CHIEF EXECUTIVES,"VICE PRESIDENT, GLOBAL PURCHASING AND MATERIALS",Y,253635,2016,"DULUTH, GEORGIA",-84.1446376,34.0028786
307,CERTIFIED,"AGLYTIX, INC.",CHIEF EXECUTIVES,CHIEF OPERATING OFFICER,Y,70900,2016,"MANKATO, MINNESOTA",-93.9993996,44.1635775
308,CERTIFIED,IMPERIAL PACIFIC INTERNATIONAL CNMI,CHIEF EXECUTIVES,SENIOR VICE PRESIDENT OF HOTEL OPERATIONS,Y,214790,2016,"SAIPAN, NA",145.7297891,15.1515153
309,CERTIFIED,"PGM TECHNOLOGIES, INC.",CHIEF EXECUTIVES,OPERATIONS MANAGER,N,50107,2016,"KNOXVILLE, TENNESSEE",-83.9207392,35.9606384
311,CERTIFIED,"STUDENTS FOR LIBERTY, INCORPORATED",CHIEF EXECUTIVES,CHIEF EXECUTIVE OFFICER,Y,103480,2016,"WASHINGTON, DISTRICT OF COLUMBIA",-77.0368707,38.9071923
313,CERTIFIED,"TRAILRUNNER INTERNATIONAL, LLC",CHIEF EXECUTIVES,CHIEF OPERATING OFFICER,Y,149594,2016,"WASHINGTON, DISTRICT OF COLUMBIA",-77.0368707,38.9071923
314,CERTIFIED,LUXOTTICA RETAIL NORTH AMERICA INC.,CHIEF EXECUTIVES,SR. DIRECTOR - CONTINUOUS IMPROVEMENT,Y,155958,2016,"MASON, OHIO",-84.309939,39.3600586
318,CERTIFIED,BARRY'S BOOTCAMP HOLDINGS LLC,CHIEF EXECUTIVES,CHEIF MARKETING OFFICER,Y,240469,2016,"NEW YORK, NEW YORK",-74.0059413,40.7127837
319,CERTIFIED,LOS ANGELES BIOMEDICAL RESEARCH INSTITUTE,CHIEF EXECUTIVES,CHIEF SCIENTIFIC OFFICER,Y,162115,2016,"TORRANCE, CALIFORNIA",-118.3406288,33.8358492
320,CERTIFIED,"CHYY (USA), LLC, F/K/A HRC LEASING COMPANY, LLC",CHIEF EXECUTIVES,PRESIDENT,Y,252137.6,2016,"WATERLOO, NEBRASKA",NA,NA
322,CERTIFIED,AVURE TECHNOLOGIES INCORPORATED,CHIEF EXECUTIVES,CHIEF TECHNICAL OFFICER,Y,156354,2016,"MIDDLETOWN, OHIO",-84.3982763,39.5150576
324,CERTIFIED,"LAICON CONSULTING SERVICES, INC.",CHIEF EXECUTIVES,CHIEF EXECUTIVE OFFICER,Y,94057.6,2016,"ORLANDO, FLORIDA",-81.3792365,28.5383355
327,CERTIFIED,LIFE TECHNOLOGIES CORPORATION,CHIEF EXECUTIVES,"DIRECTOR, BUSINESS DEVELOPMENT",Y,163176,2016,"SOUTH SAN FRANCISCO, CALIFORNIA",-122.4077498,37.654656
328,CERTIFIED,IT PEOPLE NETWORK LLC,CHIEF EXECUTIVES,DIRECTOR,Y,85821,2016,"AURORA, ILLINOIS",-88.3200715,41.7605849
333,CERTIFIED,"OILFIELD STEEL SUPPLY, LLC",CHIEF EXECUTIVES,PRESIDENT,Y,197642,2016,"MAGNOLIA, TEXAS",-95.7507815,30.2093794
336,CERTIFIED,TRANS AMERICAN INFORMATION SYSTEMS INC,CHIEF EXECUTIVES,CHIEF TECHNOLOGY OFFICER,Y,229258,2016,"DALLAS, TEXAS",-96.7969879,32.7766642
337,CERTIFIED,THE HENRY M. JACKSON FOUNDATION,CHIEF EXECUTIVES,ASSOCIATE DIRECTOR-THERAPEUTICS RESEARC,Y,247978,2016,"BETHESDA, MARYLAND",-77.0947092,38.984652
338,CERTIFIED,PEATIX INC.,CHIEF EXECUTIVES,CHIEF EXECUTIVE OFFICER,Y,153005,2016,"NEW YORK, NEW YORK",-74.0059413,40.7127837
342,CERTIFIED,EAPEIRON SOLUTIONS INC,CHIEF EXECUTIVES,BUSINESS DEVELOPMENT DIRECTOR,Y,109616,2016,"MIAMI LAKES, FLORIDA",-80.3086619,25.9087056
343,CERTIFIED,RIVIAN AUTOMOTIVE LLC,CHIEF EXECUTIVES,CHIEF STRATEGY OFFICER,Y,226574,2016,"SAN MATEO, CALIFORNIA",-122.3255254,37.5629917
345,CERTIFIED,"DIEFFENBACHER USA, INC.",CHIEF EXECUTIVES,PRESIDENT AND CEO,Y,199930,2016,"ALPHARETTA, GEORGIA",-84.2940899,34.0753762
346,CERTIFIED,"FINACCESS ADVISORS, LLC",CHIEF EXECUTIVES,"MANAGING DIRECTOR, FAMILY OFFICE SERVICES",Y,262413,2016,"MIAMI, FLORIDA",-80.1917902,25.7616798
349,CERTIFIED,MIDLANDS MANEGEMENT COMPANY,CHIEF EXECUTIVES,EXECUTIVE VICE PRESIDENT AND CHIEF OPERATING OFFICER,Y,173118,2016,"OKLAHOMA CITY, OKLAHOMA",-97.5164276,35.4675602
355,CERTIFIED,WOO SPORTS INC.,CHIEF EXECUTIVES,CHIEF EXECUTIVE OFFICER,Y,118664,2016,"BOSTON, MASSACHUSETTS",-71.0588801,42.3600825
360,CERTIFIED,"STRATEGY ONE, INC.",CHIEF EXECUTIVES,SENIOR VICE PRESIDENT,Y,174803,2016,"SAN FRANCISCO, CALIFORNIA",-122.4194155,37.7749295
361,CERTIFIED,TWINLAB CONSOLIDATION CORPORATION,CHIEF EXECUTIVES,"VICE PRESIDENT, SALES & MARKETING",Y,177798,2016,"BOCA RATON, FLORIDA",-80.1289321,26.3683064
363,CERTIFIED,MEMORIAL HOSPITAL,CHIEF EXECUTIVES,CHIEF MEDICAL OFFICER,Y,180627,2016,"OWOSSO, MICHIGAN",NA,NA
367,CERTIFIED,"STRATEGY ONE, INC.",CHIEF EXECUTIVES,EXECUTIVE VICE PRESIDENT,Y,174803,2016,"SAN FRANCISCO, CALIFORNIA",-122.4194155,37.7749295
370,CERTIFIED,"LIBERATE MEDICAL, LLC",CHIEF EXECUTIVES,CHIEF EXECUTIVE OFFICER,Y,88691,2016,"CRESTWOOD, KENTUCKY",NA,NA
374,CERTIFIED,"ECOINSIGHT, INC.",CHIEF EXECUTIVES,"VICE PRESIDENT, QA",Y,92536,2016,"ALPHARETTA, GEORGIA",-84.2940899,34.0753762
375,CERTIFIED,"BECHTEL EQUIPMENT OPERATIONS, INC.",CHIEF EXECUTIVES,CHIEF FINANCIAL OFFICER,Y,191422,2016,"SUGAR LAND, TEXAS",-95.6349463,29.6196787
377,CERTIFIED,JEWISH FEDERATION OF GREATER TOLEDO,CHIEF EXECUTIVES,CHIEF EXECUTIVE OFFICER,Y,137758,2016,"SYLVANIA, OHIO",NA,NA
381,CERTIFIED,"ELBRUS, INC.",CHIEF EXECUTIVES,CHIEF EXECUTIVE OFFICER,Y,113090,2016,"MIAMI, FLORIDA",-80.1917902,25.7616798
383,CERTIFIED,"CALIFORNIA GIANT, INC.",CHIEF EXECUTIVES,EXECUTIVE DIRECTOR - BLUEBERRY DIVISION,Y,127795,2016,"WATSONVILLE, CALIFORNIA",-121.7568946,36.910231
385,CERTIFIED,CORK ALLIANCE INC,CHIEF EXECUTIVES,CHIEF OPERATIONS OFFICER,Y,113090,2016,"DORAL, FLORIDA",-80.3553302,25.8195424
387,CERTIFIED,"PUERTO RICO SCIENCE, TECHNOLOGY AND RESEARCH TRUST",CHIEF EXECUTIVES,EXECUTIVE DIRECTOR,Y,83866,2016,"RIO PIEDRAS, PUERTO RICO",NA,NA
393,CERTIFIED,CARTRIDGE WORLD,CHIEF EXECUTIVES,GLOBAL CHIEF OPERATING OFFICER,Y,130853,2016,"MCHENRY, ILLINOIS",-88.2667534,42.333355
394,CERTIFIED,CARTRIDGE WORLD,CHIEF EXECUTIVES,GLOBAL CHIEF OPERATING OFFICER,Y,130853,2016,"MCHENRY, ILLINOIS",-88.2667534,42.333355
397,CERTIFIED,IMPERIAL PACIFIC INTERNATIONAL CNMI,CHIEF EXECUTIVES,SENIOR VICE PRESIDENT OF HOTEL OPERATIONS,Y,214790,2016,"SAIPAN, NA",145.7297891,15.1515153
410,CERTIFIED,"AUSFILM USA, INC.",CHIEF EXECUTIVES,PRESIDENT,Y,117998,2016,"LOS ANGELES, CALIFORNIA",-118.2436849,34.0522342
417,CERTIFIED,"BURLEIGH POINT, LTD.",CHIEF EXECUTIVES,GLOBAL PRESIDENT BILLABONG,Y,187200,2016,"IRVINE, CALIFORNIA",-117.7946942,33.6839473
418,CERTIFIED,ALPHA USA,CHIEF EXECUTIVES,CHIEF EXECUTIVE OFFICER,Y,142771,2016,"BANNOCKBURN, ILLINOIS",-87.8664579,42.1933581
427,CERTIFIED,"SFORZANDO, INC.",CHIEF EXECUTIVES,CHIEF EXECUTIVE OFFICER,Y,187200,2016,"SAN FRANCISCO, CALIFORNIA",-122.4194155,37.7749295
430,CERTIFIED,DRUGDEV INC.,CHIEF EXECUTIVES,EXECUTIVE CHAIRMAN,Y,187200,2016,"WAYNE, PENNSYLVANIA",-75.3698895,40.0415996
431,CERTIFIED,MATILDA MEDIA GROUP LLC,CHIEF EXECUTIVES,PRESIDENT,Y,187200,2016,"NEW YORK, NEW YORK",-74.0059413,40.7127837
435,CERTIFIED,WARNER BROS. STUDIO ENTERPRISES INC.,CHIEF EXECUTIVES,"SENIOR VICE PRESIDENT, PHYSICAL PRODUCTION",Y,164050,2016,"BURBANK, CALIFORNIA",-118.3089661,34.1808392
436,CERTIFIED,THE COCA-COLA COMPANY,CHIEF EXECUTIVES,"CHIEF INFORMATION OFFICER, BUSINESS UNIT IT SERVICES",Y,246314,2016,"ATLANTA, GEORGIA",-84.3879824,33.7489954
437,CERTIFIED,"DTZ AMERICAS, INC.",CHIEF EXECUTIVES,GLOBAL CHIEF HUMAN RESOURCES & STRATEGY OFFICER,Y,226699,2016,"CHICAGO, ILLINOIS",-87.6297982,41.8781136
438,CERTIFIED,PRESCO INC.,CHIEF EXECUTIVES,CHIEF OPERATIONS OFFICER,Y,145000,2016,"SAN JUAN CAPISTRANO, CALIFORNIA",-117.6625509,33.5016932
439,CERTIFIED,"HAILE GOLD MINE, INC.",CHIEF EXECUTIVES,EVP & CHIEF DEVELOPMENT OFFICER,Y,188843,2016,"KERSHAW, SOUTH CAROLINA",NA,NA
445,CERTIFIED,PARNELL CORPORATE SERVICES US INC,CHIEF EXECUTIVES,CHIEF EXECUTIVE OFFICER,Y,157581,2016,"OVERLAND PARK, KANSAS",-94.6707917,38.9822282
447,CERTIFIED,BABSON CAPITAL MANAGEMENT LLC,CHIEF EXECUTIVES,"MANAGING DIRECTOR, GLOBAL HEAD OF RETAIL/WEALTH SALES",Y,187200,2016,"CHARLOTTE, NORTH CAROLINA",-80.8431267,35.2270869
448,CERTIFIED,BRYDGE TECHNOLOGIES INC.,CHIEF EXECUTIVES,CHIEF EXECUTIVE OFFICER,Y,197683,2016,"SAN DIEGO, CALIFORNIA",-117.1610838,32.715738
449,CERTIFIED,"SUNSHINE MINTING, INC.",CHIEF EXECUTIVES,EXECUTIVE VICE PRESIDENT OF OPERATIONS AND GENERAL MANAGER,Y,130021,2016,"LAS VEGAS, NEVADA",-115.1398296,36.1699412
451,CERTIFIED,"JINDILLI, INC.",CHIEF EXECUTIVES,CHIEF FINANCIAL OFFICER,Y,130853,2016,"OAKBROOK TERRACE, ILLINOIS",-87.9645077,41.8500302
452,CERTIFIED,BATTERY MARKETING ASSOCIATES INC,CHIEF EXECUTIVES,COO,Y,102190,2016,"JACKSONVILLE, FLORIDA",-81.655651,30.3321838
456,CERTIFIED,"VENTANA MEDICAL SYSTEMS, INC.",CHIEF EXECUTIVES,"VP, CLINCIAL SCIENCE",Y,149864,2016,"TUCSON, ARIZONA",-110.926479,32.2217429
458,CERTIFIED,BLUESPOTPARK INC.,CHIEF EXECUTIVES,CHIEF TECHNICAL OFFICER,Y,75587.2,2016,"HONOLULU, HAWAII",-157.8583333,21.3069444
460,CERTIFIED,"WEARE8, INC.",CHIEF EXECUTIVES,CHIEF EXECUTIVE OFFICER,Y,187200,2016,"NEW YORK, NEW YORK",-74.0059413,40.7127837
464,CERTIFIED,"ARISTOCRAT TECHNOLOGIES, INC.",CHIEF EXECUTIVES,SENIOR VICE PRESIDENT-GLOBAL GAMING OPERATIONS,Y,225035,2016,"LAS VEGAS, NEVADA",-115.1398296,36.1699412
474,CERTIFIED,"BARFRESH, INC.",CHIEF EXECUTIVES,CHIEF EXECUTIVE OFFICER,Y,164050,2016,"BEVERLY HILLS, CALIFORNIA",-118.4003563,34.0736204
475,CERTIFIED,"IMPERIAL PACIFIC INTERNATIONAL (CNMI), LLC",CHIEF EXECUTIVES,VICE PRESIDENT OF OPERATIONS - INTERNATIONAL MARKETING,Y,120390.4,2016,"SAIPAN, NA",145.7297891,15.1515153
476,CERTIFIED,TWENTIETH CENTURY FOX FILM CORPORATION,CHIEF EXECUTIVES,"VICE PRESIDENT, CORPORATE COMPLIANCE",Y,210122,2016,"LOS ANGELES, CALIFORNIA",-118.2436849,34.0522342
477,CERTIFIED,SECTION.IO INCORPORATED,CHIEF EXECUTIVES,CHIEF EXECUTIVE,Y,127795,2016,"BOULDER, COLORADO",-105.2705456,40.0149856
483,CERTIFIED,"OAKRIDGE GLOBAL ENERGY SOLUTIONS, INC",CHIEF EXECUTIVES,CHIEF EXECUTIVE OFFICER,Y,194605,2016,"PALM BAY, FLORIDA",-80.5886646,28.0344621
484,CERTIFIED,MIKE DOLCE MMA INC.,CHIEF EXECUTIVES,CHIEF OPERATING OFFICER,Y,82514,2016,"LAS VEGAS, NEVADA",-115.1398296,36.1699412
488,CERTIFIED,HYDRX SOLUTIONS LLC,CHIEF EXECUTIVES,CHIEF EXECUTIVE OFFICER,Y,228946,2016,"HOUSTON, TEXAS",-95.3698028,29.7604267
489,CERTIFIED,"ION AMERICA, LLC",CHIEF EXECUTIVES,CHIEF EXECUTIVE OFFICER,Y,97739,2016,"MOORESTOWN, NEW JERSEY",-74.948886,39.9688817
490,CERTIFIED,JIVA INFOTECH INC,CHIEF EXECUTIVES,CHIEF OPERATING OFFICER,Y,119912,2016,"DALLAS, TEXAS",-96.7969879,32.7766642
494,CERTIFIED,"ELDARION, INC.",CHIEF EXECUTIVES,CHIEF TECHNOLOGY OFFICER,Y,164403,2016,"BURLINGTON, MASSACHUSETTS",-71.1956205,42.5047161
500,CERTIFIED,MCLEAREN ROAD PROPERTY OWNER LLC,CHIEF EXECUTIVES,CHIEF EXECUTIVE,Y,103480,2016,"WASHINGTON, DISTRICT OF COLUMBIA",-77.0368707,38.9071923
502,CERTIFIED,MATILDA MEDIA GROUP LLC,CHIEF EXECUTIVES,MANAGING DIRECTOR,Y,117998,2016,"LOS ANGELES, CALIFORNIA",-118.2436849,34.0522342
504,CERTIFIED,OUTRIGGER HOTELS HAWAII,CHIEF EXECUTIVES,CHIEF OPERATING OFFICER,Y,202530,2016,"HONOLULU, HAWAII",-157.8583333,21.3069444
507,CERTIFIED,"NITRO CIRCUS LIVE USA, INC.",CHIEF EXECUTIVES,CHIEF EXECUTIVE OFFICER,Y,215155.2,2016,"SAN CLEMENTE, CALIFORNIA",-117.6119925,33.4269728
512,CERTIFIED,"PACNET SERVICES (USA), INC.",CHIEF EXECUTIVES,SR. VICE PRESIDENT OF CORPORATE DEVELOPMENT,Y,215862,2016,"SAN FRANCISCO, CALIFORNIA",-122.4194155,37.7749295
514,CERTIFIED,"ORION HEALTH, INC.",CHIEF EXECUTIVES,"EXECUTIVE VICE PRESIDENT, GLOBAL SERVICES",Y,213200,2016,"SCOTTSDALE, ARIZONA",-111.9260519,33.4941704
517,CERTIFIED,OUTRIGGER HOTELS HAWAII,CHIEF EXECUTIVES,CHIEF OPERATING OFFICER,Y,202530,2016,"HONOLULU, HAWAII",-157.8583333,21.3069444
519,CERTIFIED,NEW YORK HOTEL & MOTEL TRADES COUNCIL,CHIEF EXECUTIVES,CHIEF INFORMATION OFFICER,Y,175000,2016,"NEW YORK, NEW YORK",-74.0059413,40.7127837
521,CERTIFIED,"NITRO CIRCUS LIVE USA, INC.",CHIEF EXECUTIVES,CHIEF OPERATING OFFICER,Y,215155.2,2016,"SAN CLEMENTE, CALIFORNIA",-117.6119925,33.4269728
522,CERTIFIED,MAGIACX SOLUTIONS PTY LLC,CHIEF EXECUTIVES,CHIEF EXECUTIVE OFFICER,Y,149594,2016,"RESTON, VIRGINIA",-77.3570028,38.9586307
526,CERTIFIED,INCOGNITUS LLC,CHIEF EXECUTIVES,CHIEF EXECUTIVE OFFICER,Y,178942,2016,"ORLANDO, FLORIDA",-81.3792365,28.5383355
527,CERTIFIED,TAHLENT INC,CHIEF EXECUTIVES,CHIEF EXECUTIVE OFFICER,Y,111904,2016,"DUBLIN, CALIFORNIA",-121.9357918,37.7021521
528,CERTIFIED,TSAR USA LLC,CHIEF EXECUTIVES,MANAGING DIRECTOR,Y,233417.6,2016,"BROOKLYN, NEW YORK",-73.9441579,40.6781784
532,CERTIFIED,"ASP, INC.",CHIEF EXECUTIVES,EXECUTIVE VICE PRESIDENT,Y,82514,2016,"LAS VEGAS, NEVADA",-115.1398296,36.1699412
534,CERTIFIED,"KBR, INC.",CHIEF EXECUTIVES,EXECUTIVE VP - GLOBAL BUSINESS DEVELOPMENT & STRATEGY,Y,283500,2016,"HOUSTON, TEXAS",-95.3698028,29.7604267
535,CERTIFIED,"AMERICAN PATRIOT OIL AND GAS, INC",CHIEF EXECUTIVES,CHIEF EXECUTIVE,Y,219523,2016,"DENVER, COLORADO",-104.990251,39.7392358
539,CERTIFIED,OKAPI EDUCATIONAL PUBLISHING INC.,CHIEF EXECUTIVES,CHIEF FINANCIAL OFFICER,Y,87797,2016,"TEMECULA, CALIFORNIA",-117.1483648,33.4936391
544,CERTIFIED,KERR CORPORATION,CHIEF EXECUTIVES,"GROUP PRESIDENT, PROFESSIONAL CONSUMABLES",Y,187200,2016,"ORANGE, CALIFORNIA",-117.8531119,33.7877944
549,CERTIFIED,"PROCO GLOBAL, INC.",CHIEF EXECUTIVES,REGIONAL CEO - AMERICAS,Y,233418,2016,"NEW YORK, NEW YORK",-74.0059413,40.7127837
551,CERTIFIED,"TALENT INTELLIGENCE, INC.",CHIEF EXECUTIVES,CHIEF EXECUTIVE OFFICER/PRESIDENT,Y,226699,2016,"CHICAGO, ILLINOIS",-87.6297982,41.8781136
552,CERTIFIED,PACIFIC RESOURCES FOR EDUCATION AND LEARNING,CHIEF EXECUTIVES,PRESIDENT AND CHIEF EXECUTIVE OFFICER,Y,125590,2016,"HONOLULU, HAWAII",-157.8583333,21.3069444
553,CERTIFIED,VIDIENSE TECHNOLOGY INC.,CHIEF EXECUTIVES,CHIEF EXECUTIVE OFFICER,Y,187200,2016,"MENLO PARK, CALIFORNIA",-122.1817252,37.4529598
556,CERTIFIED,LIVETILES LLC,CHIEF EXECUTIVES,CHIEF TECHNOLOGY OFFICER,Y,196747,2016,"NEW YORK, NEW YORK",-74.0059413,40.7127837
557,CERTIFIED,"LORNA JANE USA, INC.",CHIEF EXECUTIVES,EXECUTIVE VICE PRESIDENT,Y,216403,2016,"SANTA MONICA, CALIFORNIA",-118.4911912,34.0194543
562,CERTIFIED,"ARISTOCRAT TECHNOLOGIES, INC.",CHIEF EXECUTIVES,VP MARKETING & PRODUCT STRATEGY,Y,185432,2016,"LAS VEGAS, NEVADA",-115.1398296,36.1699412
564,CERTIFIED,"ONEWORLD MANAGEMENT COMPANY, INC.",CHIEF EXECUTIVES,CHIEF FINANCIAL OFFICER,Y,284211,2016,"NEW YORK, NEW YORK",-74.0059413,40.7127837
569,CERTIFIED,"RAPIDBUILT, INC.",CHIEF EXECUTIVES,PRESIDENT,Y,119558,2016,"WEATHERFORD, TEXAS",NA,NA
571,CERTIFIED,ROCKETSPACE INC.,CHIEF EXECUTIVES,CHIEF TECHNOLOGY OFFICER,Y,292000,2016,"SAN FRANCISCO, CALIFORNIA",-122.4194155,37.7749295
573,CERTIFIED,BARBARO GROUP USA INC.,CHIEF EXECUTIVES,CHIEF EXECUTIVE OFFICER,Y,195250,2016,"SALT LAKE CITY, UTAH",-111.8910474,40.7607793
575,CERTIFIED,SVB EQUITY CAPITAL LLC,CHIEF EXECUTIVES,VICE PRESIDENT - INVESTMENTS,Y,187200,2016,"PALO ALTO, CALIFORNIA",-122.1430195,37.4418834
576,CERTIFIED,THERMO FISHER SCIENTIFIC INC.,CHIEF EXECUTIVES,"VICE PRESIDENT, FINANCE-  GLOBAL CHEMICALS",Y,196747,2016,"FAIR LAWN, NEW JERSEY",-74.1318096,40.9403762
577,CERTIFIED,LFG AMERICA PTY LTD.,CHIEF EXECUTIVES,CHIEF EXECUTIVE OFFICER,Y,284211,2016,"NEW YORK, NEW YORK",-74.0059413,40.7127837
578,CERTIFIED,ZOOX INC.,CHIEF EXECUTIVES,CHIEF EXECUTIVE OFFICER,Y,123053,2016,"MENLO PARK, CALIFORNIA",-122.1817252,37.4529598
585,CERTIFIED,C S RMS LLC,CHIEF EXECUTIVES,PRESIDENT / CEO,Y,210000,2016,"FUQUAY VARINA, NORTH CAROLINA",NA,NA
586,CERTIFIED,"FREIGHTPLUS (USA), INC.",CHIEF EXECUTIVES,"PRESIDENT, USA",Y,92539,2016,"MARIETTA, GEORGIA",-84.5499327,33.952602
588,CERTIFIED,"SURFSTITCH USA, INC.",CHIEF EXECUTIVES,PRESIDENT,Y,175614,2016,"IRVINE, CALIFORNIA",-117.7946942,33.6839473
590,CERTIFIED,PRINCE OF PEACE ENTERPRISES INC.,CHIEF EXECUTIVES,SENIOR VICE PRESIDENT,Y,163176,2016,"HAYWARD, CALIFORNIA",-122.0807964,37.6688205
591,CERTIFIED,CPT GLOBAL INC,CHIEF EXECUTIVES,MANAGING DIRECTOR,Y,284211,2016,"NEW YORK, NEW YORK",-74.0059413,40.7127837
594,CERTIFIED,"PRATT INDUSTRIES, INC.",CHIEF EXECUTIVES,OPERATIONS MANAGER,Y,253635.2,2016,"CONYERS, GEORGIA",-84.0176904,33.6676103
595,CERTIFIED,CQR INC,CHIEF EXECUTIVES,CHIEF EXECUTIVE OFFICER,Y,196747,2016,"NEW YORK, NEW YORK",-74.0059413,40.7127837
629,CERTIFIED,PANDA EXPRESS INC.,GENERAL AND OPERATIONS MANAGERS,AREA COACH OPERATIONS-IN TRAINING,N,43202,2016,"SIOUX CITY, IOWA",-96.4003069,42.4999942
644,CERTIFIED,SOHO HOUSE  - CIPURA MIAMI LLC,GENERAL AND OPERATIONS MANAGERS,GENERAL MANAGER,Y,135533,2016,"MIAMI, FLORIDA",-80.1917902,25.7616798
646,CERTIFIED,"MAGELLAN AEROSPACE NEW YORK, INC.",GENERAL AND OPERATIONS MANAGERS,DIRECTOR OF COMMERCIAL PROGRAMS,Y,74402,2016,"CORONA, NEW YORK",-73.8642613,40.7449859
647,CERTIFIED,"LOCCIONI USA, INC.",GENERAL AND OPERATIONS MANAGERS,MANAGING DIRECTOR,Y,111571,2016,"COLLEGE PARK, MARYLAND",-76.93776,38.9896967
648,CERTIFIED,THE HERTZ CORPORATION,GENERAL AND OPERATIONS MANAGERS,DIRECTOR FLEET STRATEGY,Y,142293,2016,"ESTERO, FLORIDA",NA,NA
652,CERTIFIED,ADOBE SYSTEMS INCORPORATED,GENERAL AND OPERATIONS MANAGERS,PRODUCT MARKETING MANAGER,Y,117437,2016,"NEW YORK, NEW YORK",-74.0059413,40.7127837
654,CERTIFIED,ADOBE SYSTEMS INCORPORATED,GENERAL AND OPERATIONS MANAGERS,PRODUCT MANAGER,Y,117437,2016,"NEW YORK, NEW YORK",-74.0059413,40.7127837
661,CERTIFIED,"ECYCLEIT, LLC",GENERAL AND OPERATIONS MANAGERS,GENERAL MANAGER,Y,137800,2016,"CARROLLTON, TEXAS",-96.8899636,32.9756415
664,CERTIFIED,"THOUGHTWORKS, INC.",GENERAL AND OPERATIONS MANAGERS,RESOURCE MANAGEMENT MANAGER,Y,110490,2016,"CHICAGO, ILLINOIS",-87.6297982,41.8781136
672,CERTIFIED,SYSCO CORPORATION,GENERAL AND OPERATIONS MANAGERS,"SENIOR MANAGER, PROFITABILITY MANAGEMENT",Y,101192,2016,"HOUSTON, TEXAS",-95.3698028,29.7604267
673,CERTIFIED,CRANE CO.,GENERAL AND OPERATIONS MANAGERS,"MANAGER, CRANE BUSINESS SYSTEMS",Y,80579,2016,"CINCINNATI, OHIO",-84.5120196,39.1031182
676,CERTIFIED,NORWEGIAN AMERICAN DEFENSE INDUSTRY COUNCIL,GENERAL AND OPERATIONS MANAGERS,GENERAL MANAGER,Y,77626,2016,"ALEXANDRIA, VIRGINIA",-77.0469214,38.8048355
678,CERTIFIED,"BEST MADE TOYS, LLC",GENERAL AND OPERATIONS MANAGERS,CHIEF EXECUTIVE OFFICER,Y,163010,2016,"RANCHO PALOS VERDES, CALIFORNIA",-118.3870173,33.7444613
680,CERTIFIED,T.F. HUDGINS,GENERAL AND OPERATIONS MANAGERS,GENERAL MANAGER,Y,138403,2016,"TOMBALL, TEXAS",-95.6160549,30.0971621
681,CERTIFIED,TOTAL PRODUCE USA HOLDINGS INC,GENERAL AND OPERATIONS MANAGERS,CORPORATE DEVELOPMENT MANAGER- LEGAL ADVISOR,N,59696,2016,"NEWPORT BEACH, CALIFORNIA",-117.9289469,33.6189101
684,CERTIFIED,SUPERIOR GRANITE AND MARBLE BY VIVALDI LLC,GENERAL AND OPERATIONS MANAGERS,OPERATIONS MANAGER,Y,101192,2016,"HOUSTON, TEXAS",-95.3698028,29.7604267
686,CERTIFIED,MICROSOFT CORPORATION,GENERAL AND OPERATIONS MANAGERS,"ASSISTANT GENERAL COUNSEL, CHIEF OF STAFF",Y,162989,2016,"REDMOND, WASHINGTON",-122.121512,47.6739881
690,CERTIFIED,GEMOLOGICAL INSTITUTE OF AMERICA (GIA),GENERAL AND OPERATIONS MANAGERS,"ASSOCIATE MANAGER, OPERATIONS SERVICES",N,58261,2016,"NEW YORK, NEW YORK",-74.0059413,40.7127837
693,CERTIFIED,"YUSUF, INC.",GENERAL AND OPERATIONS MANAGERS,REGIONAL MANAGER,N,61568,2016,"KISSIMMEE, FLORIDA",-81.407571,28.2919557
694,CERTIFIED,TRISTAR TERMINALS GUAM INC.,GENERAL AND OPERATIONS MANAGERS,GENERAL MANAGER,Y,70034,2016,"HAGATNA, NA",144.7502228,13.4762824
695,CERTIFIED,"WARGAMING AMERICA, INC.",GENERAL AND OPERATIONS MANAGERS,PRODUCTION PROJECT MANAGER,N,67475,2016,"EMERYVILLE, CALIFORNIA",-122.2852473,37.831316
697,CERTIFIED,LITCHFIELD ON THE GREEN INC,GENERAL AND OPERATIONS MANAGERS,GENERAL MANAGER,N,42619,2016,"LITCHFIELD, CONNECTICUT",NA,NA
698,CERTIFIED,"CLUB QUARTERS MANAGEMENT CO., LLC",GENERAL AND OPERATIONS MANAGERS,DIRECTOR OF GUEST ROOM OPERATIONS,Y,116064,2016,"STAMFORD, CONNECTICUT",-73.5387341,41.0534302
702,CERTIFIED,SAN DIEGO DIPLOMACY COUNCIL,GENERAL AND OPERATIONS MANAGERS,EXECUTIVE DIRECTOR,N,57158,2016,"SAN DIEGO, CALIFORNIA",-117.1610838,32.715738
706,CERTIFIED,"NATIONAL OILWELL VARCO, L.P.",GENERAL AND OPERATIONS MANAGERS,OPERATIONS MANAGER,N,49754,2016,"CALEXICO, CALIFORNIA",NA,NA
708,CERTIFIED,"CARILION SERVICES, INC.",GENERAL AND OPERATIONS MANAGERS,HEALTH ANALYTICS DIRECTOR,Y,143000,2016,"ROANOKE, VIRGINIA",-79.9414266,37.2709704
709,CERTIFIED,OLIVET UNIVERSITY,GENERAL AND OPERATIONS MANAGERS,THEOLOGICAL BOOKSTORE MANAGER,N,68702.4,2016,"SAN FRANCISCO, CALIFORNIA",-122.4194155,37.7749295
711,CERTIFIED,G III LEATHER FASHIONS INC.,GENERAL AND OPERATIONS MANAGERS,PRODUCTION MANAGER,Y,74402,2016,"NEW YORK, NEW YORK",-74.0059413,40.7127837
714,CERTIFIED,"MOTEL 2 STAY, LP",GENERAL AND OPERATIONS MANAGERS,GENERAL MANAGER,N,52936,2016,"AUSTIN, TEXAS",-97.7430608,30.267153
716,CERTIFIED,"HEADSPACE, INC.",GENERAL AND OPERATIONS MANAGERS,VICE PRESIDENT OF PRODUCT,Y,163010,2016,"VENICE, CALIFORNIA",-118.4694832,33.9850469
719,CERTIFIED,A MEDIUM CORPORATION,GENERAL AND OPERATIONS MANAGERS,CHIEF OF STAFF,Y,150467,2016,"SAN FRANCISCO, CALIFORNIA",-122.4194155,37.7749295
722,CERTIFIED,"NSIGHT, INC",GENERAL AND OPERATIONS MANAGERS,"DIRECTOR, OPERATIONS",Y,71282,2016,"SANTA CLARA, CALIFORNIA",-121.9552356,37.3541079
724,CERTIFIED,ANALYTICS QUOTIENT INC,GENERAL AND OPERATIONS MANAGERS,"LEAD, CLIENT SERVICES",Y,117437,2016,"NEW YORK CITY, NEW YORK",-74.0059413,40.7127837
726,CERTIFIED,PRICEWATERHOUSECOOPERS ADVISORY SERVICES LLC,GENERAL AND OPERATIONS MANAGERS,ADVISORY DIRECTOR,Y,154232,2016,"AUSTIN, TEXAS",-97.7430608,30.267153
727,CERTIFIED,PRICEWATERHOUSECOOPERS ADVISORY SERVICES LLC,GENERAL AND OPERATIONS MANAGERS,ADVISORY DIRECTOR,Y,203486,2016,"NEW YORK, NEW YORK",-74.0059413,40.7127837
728,CERTIFIED,SCHLUMBERGER TECHNOLOGY CORPORATION,GENERAL AND OPERATIONS MANAGERS,QUALITY AND OPERATIONS SUPPORT MANAGER,Y,113000,2016,"HOUSTON, TEXAS",-95.3698028,29.7604267
730,CERTIFIED,ALTUZARRA LLC,GENERAL AND OPERATIONS MANAGERS,STUDIO DIRECTOR,Y,117437,2016,"NEW YORK, NEW YORK",-74.0059413,40.7127837
733,CERTIFIED,ELWAY INDUSTRIES INC,GENERAL AND OPERATIONS MANAGERS,GENERAL AND OPERATIONS MANAGER,N,64002,2016,"HOUSTON, TEXAS",-95.3698028,29.7604267
737,CERTIFIED,SLASH SUPPORT INC.,GENERAL AND OPERATIONS MANAGERS,ASSOCIATE VICE PRESIDENT (SALES AND ACCOUNT MANAGEMENT),Y,155418,2016,"MILPITAS, CALIFORNIA",-121.8995741,37.4323341
742,CERTIFIED,APPLE INC.,GENERAL AND OPERATIONS MANAGERS,GENERAL AND OPERATIONS MANAGER,Y,113339,2016,"CUPERTINO, CALIFORNIA",-122.0321823,37.3229978
744,CERTIFIED,COMPASS GROUP USA INC.,GENERAL AND OPERATIONS MANAGERS,PROGRAM MANAGER,Y,71282,2016,"MOUNTAIN VIEW, CALIFORNIA",-122.0838511,37.3860517
745,CERTIFIED,GATEWAY HEALTH PLAN,GENERAL AND OPERATIONS MANAGERS,"DIRECTOR, PERFORMANCE OPTIMIZATION",Y,84344,2016,"PITTSBURGH, PENNSYLVANIA",-79.9958864,40.4406248
747,CERTIFIED,THE HERTZ CORPORATION,GENERAL AND OPERATIONS MANAGERS,"VICE PRESIDENT, CONTINUOUS IMPROVEMENT",Y,142293,2016,"ESTERO, FLORIDA",NA,NA
748,CERTIFIED,AKSIA LLC,GENERAL AND OPERATIONS MANAGERS,EUROPE OPERATIONS MANAGER,Y,203486,2016,"NEW YORK, NEW YORK",-74.0059413,40.7127837
749,CERTIFIED,"PERVACIO, INC.",GENERAL AND OPERATIONS MANAGERS,"VICE PRESIDENT, OPERATIONS - AMERICAS",Y,175386,2016,"IRVING, TEXAS",-96.9488945,32.8140177
754,CERTIFIED,FLEX FILMS (USA) INC.,GENERAL AND OPERATIONS MANAGERS,SENIOR GENERAL MANAGER,Y,77438,2016,"ELIZABETHTOWN, KENTUCKY",-85.8649408,37.7030646
755,CERTIFIED,"GREEN TECH, LLC",GENERAL AND OPERATIONS MANAGERS,BUSINESS OPERATIONS MANAGER,N,64875.2,2016,"ARDMORE, PENNSYLVANIA",NA,NA
760,CERTIFIED,BEECH-NUT NUTRITION COMPANY,GENERAL AND OPERATIONS MANAGERS,"MANAGER, CO-MANUFACTURING",Y,93475,2016,"AMSTERDAM, NEW YORK",NA,NA
764,CERTIFIED,"NATURE'S SUNSHINE PRODUCTS, INC.",GENERAL AND OPERATIONS MANAGERS,PROJECT MANAGER I - OPERATIONS,N,61277,2016,"LEHI, UTAH",-111.8507662,40.3916172
770,CERTIFIED,"PEPSICO, INC.",GENERAL AND OPERATIONS MANAGERS,"ASSOCIATE MANAGER, NAN STRATEGY",Y,79414,2016,"CHICAGO, ILLINOIS",-87.6297982,41.8781136
773,CERTIFIED,ADOBE SYSTEMS INCORPORATED,GENERAL AND OPERATIONS MANAGERS,PRODUCT MARKETING MANAGER,Y,117437,2016,"NEW YORK, NEW YORK",-74.0059413,40.7127837
774,CERTIFIED,ADOBE SYSTEMS INCORPORATED,GENERAL AND OPERATIONS MANAGERS,PRODUCT MARKETING MANAGER,Y,113339,2016,"SAN JOSE, CALIFORNIA",-121.8863286,37.3382082
775,CERTIFIED,ADOBE SYSTEMS INCORPORATED,GENERAL AND OPERATIONS MANAGERS,PRODUCT MARKETING MANAGER,Y,100610,2016,"SEATTLE, WASHINGTON",-122.3320708,47.6062095
776,CERTIFIED,ADOBE SYSTEMS INCORPORATED,GENERAL AND OPERATIONS MANAGERS,PRODUCT MANAGER,N,61277,2016,"LEHI, UTAH",-111.8507662,40.3916172
779,CERTIFIED,ADOBE SYSTEMS INCORPORATED,GENERAL AND OPERATIONS MANAGERS,PRODUCT MANAGER,Y,113339,2016,"SAN JOSE, CALIFORNIA",-121.8863286,37.3382082
781,CERTIFIED,"FAWER USA, INC.",GENERAL AND OPERATIONS MANAGERS,ENGINEERING MANAGER,Y,86632,2016,"SOUTHFIELD, MICHIGAN",-83.2218731,42.4733688
790,CERTIFIED,"ZEOMEGA, INC.",GENERAL AND OPERATIONS MANAGERS,ASSOCIATE DIRECTOR,Y,100214,2016,"PLANO, TEXAS",-96.6988856,33.0198431
793,CERTIFIED,CAESARS ENTERPRISE SERVICES LLC,GENERAL AND OPERATIONS MANAGERS,GENERAL MANAGER ASSOCIATE,Y,129667,2016,"LAUGHLIN, NEVADA",NA,NA
795,CERTIFIED,"LIGHTS AND SOUNDS COLLECTIVE, INC.",GENERAL AND OPERATIONS MANAGERS,DIRECTOR OF OPERATIONS,N,57033.6,2016,"ROSEMEAD, CALIFORNIA",-118.072846,34.0805651
801,CERTIFIED,BLUE RIDGE CAMP &AMP; RESORT INC.,GENERAL AND OPERATIONS MANAGERS,ASST DIRECTOR OF OPERATIONS &AMP; PROGRAM,N,44366,2016,"MOUNTAIN CITY, GEORGIA",NA,NA
806,CERTIFIED,THE PREDICTABLE SUCCESS LLC,GENERAL AND OPERATIONS MANAGERS,PRESIDENT,Y,95098,2016,"CORONA DEL MAR, CALIFORNIA",NA,NA
810,CERTIFIED,PRINTRONIC CORPORATION,GENERAL AND OPERATIONS MANAGERS,OPERATIONS MANAGER,N,59696,2016,"SANTA ANA, CALIFORNIA",-117.8678338,33.7455731
819,CERTIFIED,SI COMMUNICATIONS INC.,GENERAL AND OPERATIONS MANAGERS,OPERATIONS MANAGER,N,54059.2,2016,"UNION CITY, GEORGIA",NA,NA
820,CERTIFIED,"ZEOMEGA, INC.",GENERAL AND OPERATIONS MANAGERS,ASSOCIATE DIRECTOR,N,62629,2016,"PLANO, TEXAS",-96.6988856,33.0198431
822,CERTIFIED,"ZEOMEGA, INC.",GENERAL AND OPERATIONS MANAGERS,ASSOCIATE DIRECTOR,Y,100214,2016,"PLANO, TEXAS",-96.6988856,33.0198431
823,CERTIFIED,SALESFORCE.COM INC.,GENERAL AND OPERATIONS MANAGERS,"PRINCIPAL, CUSTOMER SUCCESS MANAGER",Y,107515,2016,"BOSTON, MASSACHUSETTS",-71.0588801,42.3600825
825,CERTIFIED,"FIVEPALLS, INC",GENERAL AND OPERATIONS MANAGERS,PRESIDENT,Y,117437,2016,"NEW YORK, NEW YORK",-74.0059413,40.7127837
828,CERTIFIED,YUMA REGIONAL MEDICAL CENTER,GENERAL AND OPERATIONS MANAGERS,GENERAL AND OPERATIONS MANAGER,N,66768,2016,"YUMA, ARIZONA",-114.6276916,32.6926512
830,CERTIFIED,UST GLOBAL INC,GENERAL AND OPERATIONS MANAGERS,SENIOR MANAGER OPERATIONS,Y,95098,2016,"ALISO VIEJO, CALIFORNIA",-117.7256083,33.5676842
833,CERTIFIED,"1 HOTEL SOUTH BEACH, INC.",GENERAL AND OPERATIONS MANAGERS,RESIDENCE OPERATIONS MANAGER,N,69514,2016,"MIAMI BEACH, FLORIDA",-80.1300455,25.790654
840,CERTIFIED,AMGEN INC.,GENERAL AND OPERATIONS MANAGERS,STRATEGY SR. MANAGER,Y,121514,2016,"THOUSAND OAKS, CALIFORNIA",-118.8375937,34.1705609
847,CERTIFIED,EURO CAPITAL PROPERTIES LLC,GENERAL AND OPERATIONS MANAGERS,DIRECTOR OF OFFICE OPERATIONS,Y,77626,2016,"WASHINGTON, DISTRICT OF COLUMBIA",-77.0368707,38.9071923
849,CERTIFIED,"CHENG'S GARDEN, INC.",GENERAL AND OPERATIONS MANAGERS,GENERAL MANAGER,N,46675.2,2016,"TYLER, TEXAS",-95.3010624,32.3512601
855,CERTIFIED,ADOBE SYSTEMS INCORPORATED,GENERAL AND OPERATIONS MANAGERS,PRODUCT MARKETING MANAGER,Y,109595,2016,"SAN FRANCISCO, CALIFORNIA",-122.4194155,37.7749295
856,CERTIFIED,MEMORIAL RESOURCE DEVELOPMENT CORP,GENERAL AND OPERATIONS MANAGERS,"MANAGER, STRATEGIC PLANNING",Y,138400,2016,"HOUSTON, TEXAS",-95.3698028,29.7604267
857,CERTIFIED,"LOOKOUT, INC.",GENERAL AND OPERATIONS MANAGERS,PARTNER PRODUCT MANAGER,Y,109595,2016,"SAN FRANCISCO, CALIFORNIA",-122.4194155,37.7749295
858,CERTIFIED,ADOBE SYSTEMS INCORPORATED,GENERAL AND OPERATIONS MANAGERS,PRODUCT MARKETING MANAGER,Y,109595,2016,"SAN FRANCISCO, CALIFORNIA",-122.4194155,37.7749295
862,CERTIFIED,SHAH DISTRIBUTORS INC.,GENERAL AND OPERATIONS MANAGERS,DIRECTOR OF OPERATIONS,Y,92352,2016,"COMMERCE, CALIFORNIA",-118.1597929,34.0005691
863,CERTIFIED,GRAND CANYON UNIVERSITY,GENERAL AND OPERATIONS MANAGERS,ASSOCIATE DIRECTOR OF BASKETBALL OPERATIONS,N,47882,2016,"PHOENIX, ARIZONA",-112.0740373,33.4483771
865,CERTIFIED,"WAL-MART ASSOCIATES, INC.",GENERAL AND OPERATIONS MANAGERS,"MANAGER, OPERATIONS",Y,109595,2016,"SAN BRUNO, CALIFORNIA",-122.4110835,37.6304904
866,CERTIFIED,"AVIATION DYNAMIX, LLC",GENERAL AND OPERATIONS MANAGERS,MAINTENANCE OPERATIONS MANAGER,N,59675,2016,"WICHITA, KANSAS",-97.330053,37.6871761
868,CERTIFIED,KRAFT HEINZ FOODS COMPANY,GENERAL AND OPERATIONS MANAGERS,VICE PRESIDENT AND GENERAL MANAGER EXPORT,Y,141565,2016,"CHICAGO, ILLINOIS",-87.6297982,41.8781136
871,CERTIFIED,"MARSH USA, INC.",GENERAL AND OPERATIONS MANAGERS,REGIONAL AFFINITY LEADER,Y,168542,2016,"MIAMI, FLORIDA",-80.1917902,25.7616798
874,CERTIFIED,"ANSWERS IN GENESIS, INC.",GENERAL AND OPERATIONS MANAGERS,CHIEF OPERATING OFFICER,Y,80579,2016,"PETERSBURG, KENTUCKY",NA,NA
875,CERTIFIED,"WAL-MART ASSOCIATES, INC.",GENERAL AND OPERATIONS MANAGERS,PROJECT MANAGER III,N,41413,2016,"BENTONVILLE, ARKANSAS",-94.2088172,36.3728538
876,CERTIFIED,VINOUS MEDIA LLC,GENERAL AND OPERATIONS MANAGERS,EXECUTIVE VICE PRESIDENT,Y,117437,2016,"NEW YORK, NEW YORK",-74.0059413,40.7127837
877,CERTIFIED,"WAL-MART ASSOCIATES, INC.",GENERAL AND OPERATIONS MANAGERS,PROJECT MANAGER III,N,41413,2016,"BENTONVILLE, ARKANSAS",-94.2088172,36.3728538
878,CERTIFIED,PATRICIAS FLOORING INC,GENERAL AND OPERATIONS MANAGERS,GENERAL AND OPERATIONS MANAGER,Y,74402,2016,"ASTORIA, NEW YORK",-73.9234619,40.7643574
879,CERTIFIED,"NICE SYSTEMS, INC.",GENERAL AND OPERATIONS MANAGERS,"GENERAL MANAGER, ENTERPRISE WORKFORCE OPTIMIZATION LOB",Y,203486,2016,"PARAMUS, NEW JERSEY",-74.0754189,40.9445428
880,CERTIFIED,ANNA HU LLC,GENERAL AND OPERATIONS MANAGERS,BUSINESS OPERATIONS MANAGER,Y,74402,2016,"NEW YORK, NEW YORK",-74.0059413,40.7127837
883,CERTIFIED,WESTFIELD LLC,GENERAL AND OPERATIONS MANAGERS,EXECUTIVE VICE PRESIDENT OF DEVELOPMENT,Y,163010,2016,"CENTURY CITY, CALIFORNIA",-118.4133894,34.0536608
890,CERTIFIED,"DAVITA, INC.",GENERAL AND OPERATIONS MANAGERS,REDWOODS RESIDENT,Y,97448,2016,"DENVER, COLORADO",-104.990251,39.7392358
893,CERTIFIED,"COMPREX, LLC",GENERAL AND OPERATIONS MANAGERS,INDUSTRIAL OPERATIONS MANAGER,N,48380.8,2016,"DE PERE, WISCONSIN",-88.0603806,44.4488805
895,CERTIFIED,JUDGE TECHNICAL SERVICES INC,GENERAL AND OPERATIONS MANAGERS,SENIOR VICE PRESIDENT GLOBAL DELIVERY,Y,174429,2016,"WEST CONSHOHOCKEN, PENNSYLVANIA",-75.3162951,40.0698321
896,CERTIFIED,"NORDSTROM, INC.",GENERAL AND OPERATIONS MANAGERS,"VICE PRESIDENT, SUPPLY CHAIN AND OPERATIONS",Y,162989,2016,"SEATTLE, WASHINGTON",-122.3320708,47.6062095
900,CERTIFIED,PANDA EXPRESS INC.,GENERAL AND OPERATIONS MANAGERS,AREA COACH OPERATIONS-IN TRAINING,N,43202,2016,"CEDAR RAPIDS, IOWA",-91.6656232,41.9778795
901,CERTIFIED,"TERRATHERM, INC",GENERAL AND OPERATIONS MANAGERS,MANAGER OF TECHNOLOGY TEAM,Y,136739,2016,"GARDNER, MASSACHUSETTS",NA,NA
902,CERTIFIED,"GIPHX10,LLC",GENERAL AND OPERATIONS MANAGERS,FRONT OFFICE MANAGER,N,47882,2016,"PHOENIX, ARIZONA",-112.0740373,33.4483771
903,CERTIFIED,"PLATINUM ENERGY SOLUTIONS, LLC",GENERAL AND OPERATIONS MANAGERS,OPERATIONS MANAGER,N,54059,2016,"NORCROSS, GEORGIA",-84.2135309,33.9412127
906,CERTIFIED,EASTWARD HO! COUNTRY CLUB,GENERAL AND OPERATIONS MANAGERS,MANAGER/CHEF DE CUISINE,N,54454.4,2016,"CHATHAM, MASSACHUSETTS",NA,NA
909,CERTIFIED,"STAGE AI, INC",GENERAL AND OPERATIONS MANAGERS,PROGRAM DIRECTOR,Y,74401.6,2016,"NEW YORK, NEW YORK",-74.0059413,40.7127837
915,CERTIFIED,"WORLD JEWISH CONGRESS, LLC",GENERAL AND OPERATIONS MANAGERS,CHIEF EXECUTIVE OFFICER AND EXECUTIVE VICE PRESIDENT,Y,203486,2016,"NEW YORK, NEW YORK",-74.0059413,40.7127837
925,CERTIFIED,"COMMUNITY SERVICES ASSOCIATES, INC",GENERAL AND OPERATIONS MANAGERS,SECURITY OPERATIONS MANAGER,N,37294,2016,"HILTON HEAD ISLAND, SOUTH CAROLINA",-80.752608,32.216316
929,CERTIFIED,"SPAIN-US CHAMBER OF COMMERCE, INC",GENERAL AND OPERATIONS MANAGERS,INTERNATIONAL TRADE MANAGER,N,69513.6,2016,"MIAMI, FLORIDA",-80.1917902,25.7616798
930,CERTIFIED,"EVERGREEN PEST CONTROL, LLC",GENERAL AND OPERATIONS MANAGERS,CHIEF OPERATING OFFICER,Y,78541,2016,"GLENDALE, ARIZONA",-112.1859866,33.5386523
931,CERTIFIED,"GOLDEN TOO CO., INC.",GENERAL AND OPERATIONS MANAGERS,PRODUCTION MANAGER,Y,74401.6,2016,"NEW YORK, NEW YORK",-74.0059413,40.7127837
935,CERTIFIED,"STRONG ARM TECHNOLOGIES, INC.",GENERAL AND OPERATIONS MANAGERS,CLIENT ANALYSTS AND STRATEGY MANAGER,Y,74402,2016,"BROOKLYN, NEW YORK",-73.9441579,40.6781784
936,CERTIFIED,INNOTHIUM LLC,GENERAL AND OPERATIONS MANAGERS,GENERAL MANAGER,N,47985.6,2016,"ALBUQUERQUE, NEW MEXICO",-106.6055534,35.0853336
937,CERTIFIED,"S&D COFFEE, INC.",GENERAL AND OPERATIONS MANAGERS,DIRECTOR OF CORPORATE SOCIAL RESPONSIBILITY & SUSTAINABILITY,N,64792,2016,"CONCORD, NORTH CAROLINA",-80.579511,35.4087517
939,CERTIFIED,SHIPPAN RACQUET CLUB,GENERAL AND OPERATIONS MANAGERS,BUSINESS OPERATIONS MANAGER,Y,75732.8,2016,"STAMFORD, COLORADO",NA,NA
940,CERTIFIED,"SNAPCHAT, INC.",GENERAL AND OPERATIONS MANAGERS,"DIRECTOR, CUSTOMER OPERATIONS",Y,163010,2016,"VENICE, CALIFORNIA",-118.4694832,33.9850469
945,CERTIFIED,"FISERV AUTOMOTIVE SOLUTIONS, INC.",GENERAL AND OPERATIONS MANAGERS,"PRESIDENT, LENDING SOLUTIONS",Y,174429,2016,"KING OF PRUSSIA, PENNSYLVANIA",-75.3835525,40.1012856
946,CERTIFIED,"VISVA, INC.",GENERAL AND OPERATIONS MANAGERS,CEO,Y,71282,2016,"CUPERTINO, CALIFORNIA",-122.0321823,37.3229978
949,CERTIFIED,"INTERNATIONAL TRADEMARK ASSOCIATION, INC.",GENERAL AND OPERATIONS MANAGERS,CHIEF EXECUTIVE OFFICER,Y,203486,2016,"NEW YORK, NEW YORK",-74.0059413,40.7127837
951,CERTIFIED,GENERAL ELECTRIC COMPANY,GENERAL AND OPERATIONS MANAGERS,"EXECUTIVE, PRODUCT MANAGEMENT - GENERATOR",Y,143582,2016,"SCHENECTADY, NEW YORK",-73.9395687,42.8142432
957,CERTIFIED,"HICKEY & ASSOCIATES, LLC",GENERAL AND OPERATIONS MANAGERS,PRINCIPAL,Y,168542,2016,"MIAMI, FLORIDA",-80.1917902,25.7616798
959,CERTIFIED,PRINTRONIC CORPORATION,GENERAL AND OPERATIONS MANAGERS,OPERATIONS MANAGER,N,59696,2016,"SANTA ANA, CALIFORNIA",-117.8678338,33.7455731
960,CERTIFIED,"BLACKSMITH INSTITUTE, INC.",GENERAL AND OPERATIONS MANAGERS,REGIONAL DIRECTOR OF FORMER SOVIET UNION PROGRAM,Y,74402,2016,"NEW YORK, NEW YORK",-74.0059413,40.7127837
961,CERTIFIED,"OWENS CORNING SALES, LLC",GENERAL AND OPERATIONS MANAGERS,PRODUCT MANAGER,Y,87500,2016,"TOLEDO, OHIO",-83.555212,41.6639383
962,CERTIFIED,PACIFIC BREEZE MECHNICHANICAL,GENERAL AND OPERATIONS MANAGERS,OPERATION MANAGER,Y,71282,2016,"MILPITAS, CALIFORNIA",-121.8995741,37.4323341
964,CERTIFIED,SIGMA CUBED INC.,GENERAL AND OPERATIONS MANAGERS,GLOBAL DIRECTOR OF BOREHOLE SEISMIC PROCESSING,Y,138400,2016,"HOUSTON, TEXAS",-95.3698028,29.7604267
965,CERTIFIED,"COOL CARRIERS SHIPPING USA, INC.",GENERAL AND OPERATIONS MANAGERS,GENERAL MANAGER (COMMERCIAL),Y,89128,2016,"PORT HUENEME, CALIFORNIA",NA,NA
967,CERTIFIED,DFOCUS AMERICA INC,GENERAL AND OPERATIONS MANAGERS,SENIOR MANAGEMENT CONSULTANT,Y,74420,2016,"PALISADES PARK, NEW JERSEY",-73.997639,40.8481556
972,CERTIFIED,RBS SECURITIES INC.,GENERAL AND OPERATIONS MANAGERS,"BUSINESS MANAGER, FX US",Y,121160,2016,"STAMFORD, CONNECTICUT",-73.5387341,41.0534302
973,CERTIFIED,NORTHWOOD HOSPITALITY LLC,GENERAL AND OPERATIONS MANAGERS,DIRECTOR OF FOOD AND BEVERAGE OPERATIONS,Y,73861,2016,"ISLAMORADA, FLORIDA",NA,NA
974,CERTIFIED,"WETRAVEL, INC.",GENERAL AND OPERATIONS MANAGERS,CHIEF MARKETING OFFICER,N,68702,2016,"SAN FRANCISCO, CALIFORNIA",-122.4194155,37.7749295
975,CERTIFIED,"TELETRAC, INC.",GENERAL AND OPERATIONS MANAGERS,"PRODUCT MANAGER, MOBILITY",Y,110490,2016,"GLENVIEW, ILLINOIS",-87.7878408,42.0697509
976,CERTIFIED,SANTA CATALINA ISLAND RESORT SERVICES,GENERAL AND OPERATIONS MANAGERS,GENERAL MANAGER,Y,92352,2016,"AVALON, CALIFORNIA",NA,NA
978,CERTIFIED,"PUMA ENERGY SERVICES (LATAM), LLC",GENERAL AND OPERATIONS MANAGERS,GENERAL MANAGER,Y,97469,2016,"GUAYNABO, PUERTO RICO",-66.1110682,18.3615548
979,CERTIFIED,"WAL-MART ASSOCIATES, INC.",GENERAL AND OPERATIONS MANAGERS,MARKET HEALTH & WELLNESS DIRECTOR,Y,89981,2016,"PUYALLUP, WASHINGTON",-122.2928974,47.1853785
980,CERTIFIED,"BRICKLY.IO, INC.",GENERAL AND OPERATIONS MANAGERS,"BUSINESS STRATEGY, FINANCE AND OPERATIONS",Y,109595.2,2016,"SAN FRANCISCO, CALIFORNIA",-122.4194155,37.7749295
981,CERTIFIED,"TUR PARTNERS, LLC",GENERAL AND OPERATIONS MANAGERS,VICE PRESIDENT,Y,79414,2016,"CHICAGO, ILLINOIS",-87.6297982,41.8781136
984,CERTIFIED,GAMEJAVA CREATIVE INC,GENERAL AND OPERATIONS MANAGERS,OPERATION DIRECTOR,N,47994,2016,"LAS VEGAS, NEVADA",-115.1398296,36.1699412
985,CERTIFIED,B&G TECHNICAL CORPORATION,GENERAL AND OPERATIONS MANAGERS,EXECUTIVE STRATEGIST,Y,74402,2016,"NEW YORK, NEW YORK",-74.0059413,40.7127837
992,CERTIFIED,VAN PARYS ARCHITECTURE AND DESIGN LLP,GENERAL AND OPERATIONS MANAGERS,BUSINESS DEVELOPMENT AND SUSTAINABILITY DIRECTOR,Y,89128,2016,"WESTLAKE VILLAGE, CALIFORNIA",-118.8073729,34.1466467
993,CERTIFIED,H RIVKIN & CO,GENERAL AND OPERATIONS MANAGERS,VICE PRESIDENT OF EEMEA,Y,79684.8,2016,"PENNINGTON, NEW JERSEY",-74.790718,40.3284402
996,CERTIFIED,BEST ELECTRONICS USA LLC,GENERAL AND OPERATIONS MANAGERS,CHIEF EXECUTIVE OFFICER,Y,212098,2016,"EAST HANOVER, NEW JERSEY",-74.3647247,40.8200623
1000,CERTIFIED,"MOSS & ASSOCIATES, LLC",GENERAL AND OPERATIONS MANAGERS,GENERAL SUPERINTENDENT,Y,133099,2016,"FORT LAUDERDALE, FLORIDA",-80.1373174,26.1224386
1001,CERTIFIED,DKUMAR LLC,GENERAL AND OPERATIONS MANAGERS,GENERAL AND OPERATION MANAGER / BUSINESS DEVELOPMENT,N,54059,2016,"SMYRNA, GEORGIA",-84.5143761,33.8839926
1005,CERTIFIED,"KOBE TRADING, INC.",GENERAL AND OPERATIONS MANAGERS,OPERATIONS MANAGER,N,48339,2016,"MORTON GROVE, ILLINOIS",-87.7825621,42.0405852
1007,CERTIFIED,"CLARITY DIAGNOSTICS, LLC",GENERAL AND OPERATIONS MANAGER,DIRECTOR OF GLOBAL SOURCING,N,64230,2016,"BOCA RATON, FLORIDA",-80.1289321,26.3683064
1010,CERTIFIED,"OTM DESIGNS & REMODELING, INC.",GENERAL AND OPERATIONS MANAGERS,OPERATIONS MANAGER,N,57034,2016,"SHERMAN OAKS, CALIFORNIA",-118.451357,34.1489719
1016,CERTIFIED,OXEA CORPORATION,GENERAL AND OPERATIONS MANAGERS,COMMERCIAL DIRECTOR OXO INTERMEDIATES AMERICAS,Y,137800,2016,"DALLAS, TEXAS",-96.7969879,32.7766642
1017,CERTIFIED,UNLIMITED DREAMS IN PITTSBURGH,GENERAL AND OPERATIONS MANAGERS,OPERATIONS MANAGER,N,52374.4,2016,"PITTSBURGH, PENNSYLVANIA",-79.9958864,40.4406248
1018,CERTIFIED,BELGO MOBILE LLC,GENERAL AND OPERATIONS MANAGERS,OPERATIONS SUPERVISOR,Y,74401.6,2016,"BROOKLYN, NEW YORK",-73.9441579,40.6781784
1019,CERTIFIED,"PUMA ENERGY SERVICES (LATAM), LLC",GENERAL AND OPERATIONS MANAGERS,COMMERCIAL MANAGER,Y,97469,2016,"GUAYNABO, PUERTO RICO",-66.1110682,18.3615548
1020,CERTIFIED,"CLARITY DIAGNOSTICS, LLC",GENERAL AND OPERATIONS MANAGER,DIRECTOR OF PRODUCT DEVELOPMENT,N,64230,2016,"BOCA RATON, FLORIDA",-80.1289321,26.3683064
1021,CERTIFIED,"DALEY & TANG PARTNERS, LLC",GENERAL AND OPERATIONS MANAGERS,VICE PRESIDENT,Y,79414,2016,"CHICAGO, ILLINOIS",-87.6297982,41.8781136
1022,CERTIFIED,"INFINITY ANCILLARY HEALTH GROUP, LLC",GENERAL AND OPERATIONS MANAGERS,FINANCE & BUSINESS DEVELOPMENT MANAGER,N,62629,2016,"DALLAS, TEXAS",-96.7969879,32.7766642
1023,CERTIFIED,CLARK'S EXCAVATING & GRADING LLC,GENERAL AND OPERATIONS MANAGERS,BUSINESS MANAGER,N,47882,2016,"SCOTTSDALE, ARIZONA",-111.9260519,33.4941704
1024,CERTIFIED,DAVITA INC.,GENERAL AND OPERATIONS MANAGERS,DIRECTOR CUSTOMER EXPERIENCE,Y,100214,2016,"COPPELL, TEXAS",-97.0150078,32.9545687
1025,CERTIFIED,WOTHCHIT INC,GENERAL AND OPERATIONS MANAGERS,BUSINESS INSIGHT AND ANALYTICS MANAGER,Y,74402,2016,"NEW YORK, NEW YORK",-74.0059413,40.7127837
1026,CERTIFIED,APTTUS CORPORATION,GENERAL AND OPERATIONS MANAGERS,BUSINESS INTELLIGENCE/OPERATIONS MANAGER,Y,150467,2016,"SAN MATEO, CALIFORNIA",-122.3255254,37.5629917
1028,CERTIFIED,GOPA IT CONSULTANTS INC.,GENERAL AND OPERATIONS MANAGERS,MANAGING PARTNER,Y,191360,2016,"SAN MATEO, CALIFORNIA",-122.3255254,37.5629917
1029,CERTIFIED,"GAZPROM MARKETING & TRADING USA, INC.",GENERAL AND OPERATIONS MANAGERS,PRESIDENT,Y,175594,2016,"HOUSTON, TEXAS",-95.3698028,29.7604267
1030,CERTIFIED,QIAO HOLDINGS LLC,GENERAL AND OPERATIONS MANAGERS,CEO,N,41413,2016,"FAYETTEVILLE, ARKANSAS",-94.1574263,36.0625795
1031,CERTIFIED,NEWHOUSE HOLDINGS LLC,GENERAL AND OPERATIONS MANAGERS,MANAGER AND OPERATIONS DIRECTOR,N,41850,2016,"CHARLESTON, WEST VIRGINIA",-81.6326234,38.3498195
1033,CERTIFIED,"GULF PINE ENERGY, LP",GENERAL AND OPERATIONS MANAGERS,"MANAGER, OPERATIONS",Y,123947,2016,"COLUMBUS, MISSISSIPPI",NA,NA
1034,CERTIFIED,"EXELTIS USA, INC.",GENERAL AND OPERATIONS MANAGERS,"VICE PRESIDENT, BUSINESS OPERATIONS",Y,170102,2016,"FLORHAM PARK, NEW JERSEY",-74.3882072,40.787878
1036,CERTIFIED,"GLOBALLOGIC,INC.",GENERAL AND OPERATIONS MANAGERS,DIRECTOR OF DELIVERY,Y,155418,2016,"SAN JOSE, CALIFORNIA",-121.8863286,37.3382082
1038,CERTIFIED,"PARKWAY METAL PRODUCTS, INC.",GENERAL AND OPERATIONS MANAGERS,BUSINESS PLANNING MANAGER,Y,79414.4,2016,"DES PLAINES, ILLINOIS",-87.8833991,42.0333623
1040,CERTIFIED,CHOOSE 2 RENT LLC,GENERAL AND OPERATIONS MANAGERS,OPERATIONS MANAGER,N,69514,2016,"MIAMI, FLORIDA",-80.1917902,25.7616798
1041,CERTIFIED,"SPRING NEWELL,INC.",GENERAL AND OPERATIONS MANAGERS,GENERAL MANAGER,Y,74401.6,2016,"NEW YORK, NEW YORK",-74.0059413,40.7127837
1044,CERTIFIED,"ROBOTEX, INC.",GENERAL AND OPERATIONS MANAGERS,CHIEF EXECUTIVE OFFICER,Y,113339,2016,"SUNNYVALE, CALIFORNIA",-122.0363496,37.36883
1045,CERTIFIED,INDUSTRIAL SPECIALISTS LLC,GENERAL AND OPERATIONS MANAGERS,TECHNICAL OPERATIONS MANAGER,Y,101192,2016,"DICKINSON, TEXAS",NA,NA
1046,CERTIFIED,ALDI INC,GENERAL AND OPERATIONS MANAGERS,DISTRICT MANAGER,Y,79414,2016,"CHICAGO, ILLINOIS",-87.6297982,41.8781136
1047,CERTIFIED,AVS PHARMACY INC,GENERAL AND OPERATIONS MANAGERS,PHARMACY MANAGER SERVICES,Y,74402,2016,"BRONX, NEW YORK",-73.8648268,40.8447819
1048,CERTIFIED,DART AEROSPACE,GENERAL AND OPERATIONS MANAGERS,DIRECTOR OF PROGRAM MANAGEMENT/CI,Y,122034,2016,"VISTA, CALIFORNIA",-117.2425355,33.2000368
1050,CERTIFIED,MITEL (DELAWARE) INC.,GENERAL AND OPERATIONS MANAGERS,OPERATIONS MANAGER,Y,78541,2016,"MESA, ARIZONA",-111.8314724,33.4151843
1054,CERTIFIED,"TESLA MOTORS, INC.",GENERAL AND OPERATIONS MANAGERS,"TECH PROGRAM MANAGER, TESLA ENERGY",Y,71282,2016,"PALO ALTO, CALIFORNIA",-122.1430195,37.4418834
1055,CERTIFIED,CORNELL HOTEL DE FRANCE INC.,GENERAL AND OPERATIONS MANAGERS,GENERAL MANAGER,N,68702,2016,"SAN FRANCISCO, CALIFORNIA",-122.4194155,37.7749295
1058,CERTIFIED,PASCALOR INC.,GENERAL AND OPERATIONS MANAGERS,OPERATIONS MANAGER,N,62629,2016,"DALLAS, TEXAS",-96.7969879,32.7766642
1061,CERTIFIED,"TESLA MOTORS, INC.",GENERAL AND OPERATIONS MANAGERS,OPERATIONS COMMODITY MANAGER,Y,113339,2016,"PALO ALTO, CALIFORNIA",-122.1430195,37.4418834
1067,CERTIFIED,"JUNO LAB, LP",GENERAL AND OPERATIONS MANAGERS,VP OF BUSINESS,Y,160451,2016,"NEW YORK, NEW YORK",-74.0059413,40.7127837
1068,CERTIFIED,MOTO CAPITAL GROUP INC.,GENERAL AND OPERATIONS MANAGERS,CHIEF OPERATING OFFICER,N,69514,2016,"MIAMI, FLORIDA",-80.1917902,25.7616798
1069,CERTIFIED,PHOENIX GADGETS REPAIR,GENERAL AND OPERATIONS MANAGERS,DIRECTOR OF OPERATIONS,N,62629,2016,"LEWISVILLE, TEXAS",-96.994174,33.046233
1071,CERTIFIED,"BLUESMART, INC.",GENERAL AND OPERATIONS MANAGERS,BUSINESS OPERATIONS SENIOR MANAGER,Y,109595,2016,"SAN FRANCISCO, CALIFORNIA",-122.4194155,37.7749295
1072,CERTIFIED,"LEVANTINA USA, INC",GENERAL AND OPERATIONS MANAGERS,GENERAL MANAGER,Y,79414,2016,"BENSENVILLE, ILLINOIS",-87.9400657,41.9550296
1074,CERTIFIED,"LONGTAIL AD SOLUTIONS, INC.",GENERAL AND OPERATIONS MANAGERS,"MANAGER, SALES OPERATION AND SPECIAL PROJECTS",Y,74402,2016,"NEW YORK, NEW YORK",-74.0059413,40.7127837
1078,CERTIFIED,SERVER MANAGEMENT SERVICES LLC,GENERAL AND OPERATIONS MANAGERS,OPERATIONS MANAGER,N,62629,2016,"IRVING, TEXAS",-96.9488945,32.8140177
1079,CERTIFIED,THE MINING GROUP INC.,GENERAL AND OPERATIONS MANAGERS,DIRECTOR OF INTERNATIONAL OPERATIONS,N,69514,2016,"CORAL GABLES, FLORIDA",-80.2683838,25.72149
1080,CERTIFIED,"PHILIPS MEDICAL SYSTEMS (CLEVELAND), INC.",GENERAL AND OPERATIONS MANAGERS,GENERAL MANAGER COMPUTED TOMOGRAPHY,Y,140629,2016,"CLEVELAND, OHIO",-81.6943605,41.49932
1082,CERTIFIED,"ERAE AUTOMOTIVE SYSTEMS CO., LTD.",GENERAL AND OPERATIONS MANAGERS,GENERAL MANAGER,Y,119995,2016,"FARMINGTON HILLS, MICHIGAN",-83.3677168,42.4989936
1083,CERTIFIED,"FUGRO USA, INC.",GENERAL AND OPERATIONS MANAGERS,"DIRECTOR, ONSHORE GEOTECHNICAL DIVISION",Y,175594,2016,"HOUSTON, TEXAS",-95.3698028,29.7604267
1084,CERTIFIED,FINANCIAL INTERMEDIARY SERVICES LLC,GENERAL AND OPERATIONS MANAGERS,OPERATIONS MANAGER,N,45552,2016,"HIXSON, TENNESSEE",NA,NA
1087,CERTIFIED,GLOBALFOUNDRIES U.S. INC.,GENERAL AND OPERATIONS MANAGERS,"SENIOR DIRECTOR, CORPORATE DEVELOPMENT",Y,197475,2016,"SANTA CLARA, CALIFORNIA",-121.9552356,37.3541079
1091,CERTIFIED,ALDI INC,GENERAL AND OPERATIONS MANAGERS,DISTRICT MANAGER,N,69514,2016,"MIAMI GARDENS, FLORIDA",-80.2456045,25.9420377
1093,CERTIFIED,GOPA IT CONSULTANTS INC.,GENERAL AND OPERATIONS MANAGERS,MANAGING PARTNER,Y,191360,2016,"SAN MATEO, CALIFORNIA",-122.3255254,37.5629917
1096,CERTIFIED,AXXERA INC,GENERAL AND OPERATIONS MANAGERS,DIRECTOR SECURITY OPERATIONS CENTER,N,59696,2016,"IRVINE, CALIFORNIA",-117.7946942,33.6839473
1099,CERTIFIED,HK CORPORATION,GENERAL AND OPERATIONS MANAGERS,OPERATIONS SPECIALIST,N,56514,2016,"MINNEAPOLIS, MINNESOTA",-93.2650108,44.977753
1100,CERTIFIED,"SIGNAL TELECOMMUNICATIONS, INC.",GENERAL AND OPERATIONS MANAGERS,BUSINESS MANAGER,N,56451,2016,"WIND GAP, PENNSYLVANIA",NA,NA
1102,CERTIFIED,"ORANGEFIELD-COLUMBUS AVENUE CONSULTING, LLC",GENERAL AND OPERATIONS MANAGERS,DIRECTOR INTERNATIONAL DESK,Y,117437,2016,"NEW YORK, NEW YORK",-74.0059413,40.7127837
1107,CERTIFIED,"FORSIGHT INVESTMENTS, INC.",GENERAL AND OPERATIONS MANAGERS,OPERATIONS MANAGER,N,64001.6,2016,"KATY, TEXAS",-95.8243956,29.7857853
1111,CERTIFIED,"SHOWAROUND, INC.",GENERAL AND OPERATIONS MANAGERS,OPERATIONS MANAGER,N,54059,2016,"ATLANTA, GEORGIA",-84.3879824,33.7489954
1113,CERTIFIED,POPPA MIGHTY CHIEF OF ALL INDIANS COMPANY INC.,GENERAL AND OPERATIONS MANAGERS,GENERAL AND OPERATIONS MANAGERS,N,50793.6,2016,"INDIANAPOLIS, INDIANA",-86.158068,39.768403
1115,CERTIFIED,DSTILLERY INC.,GENERAL AND OPERATIONS MANAGERS,SENIOR PRODUCT MANAGER,Y,117437,2016,"NEW YORK, NEW YORK",-74.0059413,40.7127837
1116,CERTIFIED,"INTERNATIONAL RESCUE COMMITTEE, INC.",GENERAL AND OPERATIONS MANAGERS,"SENIOR VICE PRESIDENT, OPERATIONS & STRATEGY",Y,160451,2016,"NEW YORK, NEW YORK",-74.0059413,40.7127837
1117,CERTIFIED,E-SHUANG LLC,GENERAL AND OPERATIONS MANAGERS,GENERAL MANAGER,Y,71282,2016,"SAN JOSE, CALIFORNIA",-121.8863286,37.3382082
1118,CERTIFIED,BACKYARD ENERGY SERVICES LLC,GENERAL AND OPERATIONS MANAGERS,LEADER OF RESEARCH & BUSINESS DEVELOPMENT,Y,131518,2016,"OKLAHOMA CITY, OKLAHOMA",-97.5164276,35.4675602
1119,CERTIFIED,"NANTMOBILE, LLC",GENERAL AND OPERATIONS MANAGERS,"VICE PRESIDENT, OPERATIONS",Y,163010,2016,"CULVER CITY, CALIFORNIA",-118.3964665,34.0211224
1121,CERTIFIED,AAXA TECHNOLOGIES INC.,GENERAL AND OPERATIONS MANAGERS,GENERAL AND OPERATIONS MANAGER,N,59696,2016,"TUSTIN, CALIFORNIA",-117.826166,33.7458511
1128,CERTIFIED,SAGINAW CHINESE AND RESEARCH INSTITUTE,GENERAL AND OPERATIONS MANAGERS,GENERAL  MANAGER,N,49130,2016,"SAGINAW, MICHIGAN",-83.9508068,43.4194699
1130,CERTIFIED,"SUPER DEAL AUTO SALES, LLC",GENERAL AND OPERATIONS MANAGERS,MECHANIC MANAGER,N,53664,2016,"COLUMBUS, OHIO",-82.9987942,39.9611755
1131,CERTIFIED,"CELLSAVERS, INC.",GENERAL AND OPERATIONS MANAGERS,CHIEF EXECUTIVE OFFICER,Y,113339,2016,"MOUNTAIN VIEW, CALIFORNIA",-122.0838511,37.3860517
1132,CERTIFIED,MARUTI MANAGEMENT INC.,GENERAL AND OPERATIONS MANAGERS,OPERATIONS MANAGER,N,49691,2016,"HARRISBURG, PENNSYLVANIA",-76.8867008,40.2731911
1133,CERTIFIED,RAPPORT IT SERVICES LLC,GENERAL AND OPERATIONS MANAGERS,RECRUITMENT DIRECTOR,Y,77314,2016,"WILMINGTON, DELAWARE",-75.5397878,39.7390721
1139,CERTIFIED,"AMKOR TECHNOLOGY, INC.",GENERAL AND OPERATIONS MANAGERS,SENIOR MANAGER - CUSTOMER SERVICE,Y,89606,2016,"SAN DIEGO, CALIFORNIA",-117.1610838,32.715738
1141,CERTIFIED,"WING INFLATABLES, INC.",GENERAL AND OPERATIONS MANAGERS,PROGRAM MANAGER,N,67475,2016,"LAFAYETTE, CALIFORNIA",-122.1180201,37.8857582
1142,CERTIFIED,CAENDRA INC,GENERAL AND OPERATIONS MANAGERS,VICE PRESIDENT OF BUSINESS DEVELOPMENT,Y,71282,2016,"SANTA CLARA, CALIFORNIA",-121.9552356,37.3541079
1143,CERTIFIED,THE HERTZ CORPORATION,GENERAL AND OPERATIONS MANAGERS,PROJECT DIRECTOR,Y,114691,2016,"ESTERO, FLORIDA",NA,NA
1145,CERTIFIED,OPTICSPLANET INC.,GENERAL AND OPERATIONS MANAGERS,OPERATIONS MANAGER,N,48339,2016,"NORTHBROOK, ILLINOIS",-87.8289548,42.1275267
1148,CERTIFIED,PANASONIC AVIONICS CORPORATION,GENERAL AND OPERATIONS MANAGERS,"DIRECTOR, PANASONIC TECHNICAL SERVICES",Y,95098,2016,"LAKE FOREST, CALIFORNIA",-117.689218,33.6469661
1151,CERTIFIED,"COLLISION CENTER DESIGN, LLC",GENERAL AND OPERATIONS MANAGERS,OPERATIONS MANAGER,Y,70969.6,2016,"JOHNSTON, RHODE ISLAND",-71.512617,41.8205199
1152,CERTIFIED,ABC LEARNING CENTER  LLC,GENERAL AND OPERATIONS MANAGERS,DIRECTOR OF ADMINISTRATION SERVICES,N,64230,2016,"LAKE WORTH, FLORIDA",-80.0684479,26.6167555
1155,CERTIFIED,"DIVERSIFIED SERVICES NETWORK, INC.",GENERAL AND OPERATIONS MANAGERS,PROGRAM COORDINATOR,N,42910,2016,"DECATUR, ILLINOIS",-88.9548001,39.8403147
1156,CERTIFIED,"ACCRETIVE, LLC",GENERAL AND OPERATIONS MANAGERS,VICE PRESIDENT,Y,74402,2016,"NEW YORK, NEW YORK",-74.0059413,40.7127837
1157,CERTIFIED,"GOLD STAR METALEX, LLC",GENERAL AND OPERATIONS MANAGERS,GENERAL MANAGER,N,52541,2016,"FORT WORTH, TEXAS",-97.3307658,32.7554883
1159,CERTIFIED,"WALES-DARBY, INC.",GENERAL AND OPERATIONS MANAGERS,"BUSINESS MANAGER, HMAX",N,69098,2016,"ISLANDIA, NEW YORK",-73.1690019,40.8042649
1160,CERTIFIED,JUNE JACOBS LABORATORIES LLC,GENERAL AND OPERATIONS MANAGERS,"DIRECTOR, INTERNATIONAL BUSINESS DEVELOPMENT",Y,74402,2016,"NEW YORK, NEW YORK",-74.0059413,40.7127837
1162,CERTIFIED,"ANNACONE TENNIS MANAGEMENT, LLC",GENERAL AND OPERATIONS MANAGERS,GENERAL OPERATIONS MANAGER,N,69098,2016,"MONTAUK, NEW YORK",NA,NA
1164,CERTIFIED,KINETIC FARM INC,GENERAL AND OPERATIONS MANAGERS,HEAD OF DRIVER OPERATIONS,N,68702,2016,"SAN FRANCISCO, CALIFORNIA",-122.4194155,37.7749295
1169,CERTIFIED,"COMBOAPP, INC.",GENERAL AND OPERATIONS MANAGERS,DIRECTOR OF OPERATIONS,N,48339,2016,"CHICAGO, ILLINOIS",-87.6297982,41.8781136
1170,CERTIFIED,LEARN LAUNCH OPERATING COMPANY,GENERAL AND OPERATIONS MANAGERS,ENTREPRENEUR IN RESIDENCE,Y,70117,2016,"BOSTON, MASSACHUSETTS",-71.0588801,42.3600825
1171,CERTIFIED,FLIP TECHNOLOGIES INC.,GENERAL AND OPERATIONS MANAGERS,CHIEF OPERATING OFFICER,Y,74402,2016,"NEW YORK, NEW YORK",-74.0059413,40.7127837
1173,CERTIFIED,DAIMLER TRUCKS NORTH AMERICA LLC,GENERAL AND OPERATIONS MANAGERS,BUILDING OPERATIONS MANAGER,Y,79227,2016,"PORTLAND, OREGON",-122.6764816,45.5230622
1174,CERTIFIED,"PLEIN CLEANING SERVICES, INC.",GENERAL AND OPERATIONS MANAGERS,OPERATIONS MANAGER,N,62254,2016,"GAITHERSBURG, MARYLAND",-77.2013705,39.1434406
1175,CERTIFIED,AXXERA INC,GENERAL AND OPERATIONS MANAGERS,GENERAL OPERATIONS MANAGER,N,59696,2016,"IRVINE, CALIFORNIA",-117.7946942,33.6839473
1176,CERTIFIED,DIAMONDS DIRECT USA INC,GENERAL AND OPERATIONS MANAGERS,DIRECTOR OF OPERATIONS,Y,97510,2016,"CHARLOTTE, NORTH CAROLINA",-80.8431267,35.2270869
1178,CERTIFIED,Q SPA LLC,GENERAL AND OPERATIONS MANAGERS,GENERAL AND OPERATIONS MANAGER,N,68702.4,2016,"SAN FRANCISCO, CALIFORNIA",-122.4194155,37.7749295
1180,CERTIFIED,LATEK LOGISTICS USA,GENERAL AND OPERATIONS MANAGERS,REGIONAL OPERATIONS MANAGER,Y,74401.6,2016,"LODI, NEW JERSEY",-74.0831971,40.8823215
1185,CERTIFIED,200 LABS INC.,GENERAL AND OPERATIONS MANAGERS,CHIEF OPERATING OFFICER,N,68702,2016,"REDWOOD CITY, CALIFORNIA",-122.2363548,37.4852152
1187,CERTIFIED,VICKY & BONNY COFFEE EXPRESS LLC,GENERAL AND OPERATIONS MANAGERS,DIRECTOR OF OPERATIONS,Y,74464,2016,"TURNERSVILLE, NEW JERSEY",NA,NA
1188,CERTIFIED,TRE MARIE LLC,GENERAL AND OPERATIONS MANAGERS,GENERAL MANAGER,N,57158,2016,"CARLSBAD, CALIFORNIA",-117.3505939,33.1580933
1192,CERTIFIED,UNI CREATION INC.,GENERAL AND OPERATIONS MANAGERS,DIRECTOR OF OPERATIONS,Y,117437,2016,"NEW YORK, NEW YORK",-74.0059413,40.7127837
1198,CERTIFIED,NORWEGIAN AMERICAN DEFENSE INDUSTRY COUNCIL,GENERAL AND OPERATIONS MANAGERS,GENERAL MANAGER,Y,77626,2016,"ALEXANDRIA, VIRGINIA",-77.0469214,38.8048355
1199,CERTIFIED,"SEABORN MANAGEMENT, INC.",GENERAL AND OPERATIONS MANAGERS,VP ENGINEERING AND OPERATIONS,Y,182291,2016,"BEVERLY, MASSACHUSETTS",-70.880049,42.5584283
1200,CERTIFIED,"THE GAP, INC.",GENERAL AND OPERATIONS MANAGERS,"PRODUCT MANAGER I, SOURCING PDM",N,68702,2016,"SAN FRANCISCO, CALIFORNIA",-122.4194155,37.7749295
1206,CERTIFIED,OPENBONDX LLC,GENERAL AND OPERATIONS MANAGERS,MANAGING DIRECTOR,Y,102523,2016,"MIAMI BEACH, FLORIDA",-80.1300455,25.790654
1207,CERTIFIED,"BEEPI, INC.",GENERAL AND OPERATIONS MANAGERS,OPERATIONS MANAGER,Y,113339,2016,"LOS ALTOS, CALIFORNIA",-122.1141298,37.3852183
1208,CERTIFIED,"AUTOMATED LOGISTICS SYSTEMS, LLC",GENERAL AND OPERATIONS MANAGERS,GENERAL MANAGER,N,41995,2016,"LAREDO, TEXAS",-99.4803241,27.5305671
1209,CERTIFIED,SALESFORCE.COM INC.,GENERAL AND OPERATIONS MANAGERS,"ACCOUNT DIRECTOR, SENIOR MANAGER",Y,107515,2016,"BOSTON, MASSACHUSETTS",-71.0588801,42.3600825
1211,CERTIFIED,RRD PARTNERS INC.,GENERAL AND OPERATIONS MANAGERS,CHIEF OPERATING OFFICER,Y,160451,2016,"NEW YORK, NEW YORK",-74.0059413,40.7127837
1215,CERTIFIED,"TEXAS VILLAGE AUSTIN, LTD.",GENERAL AND OPERATIONS MANAGERS,OPERATIONS MANAGER,N,52936,2016,"AUSTIN, TEXAS",-97.7430608,30.267153
1220,CERTIFIED,LYTLE PEDIATRIC  DENTISTRY,GENERAL AND OPERATIONS MANAGERS,OPERATIONS MANAGER,N,54246,2016,"LYTLE, TEXAS",NA,NA
1221,CERTIFIED,UNITRADE GROUP INC,GENERAL AND OPERATIONS MANAGERS,BUSINESS DEVELOPMENT MANAGER,Y,86132.8,2016,"EAST HANOVER, NEW JERSEY",-74.3647247,40.8200623
1223,CERTIFIED,"WAL-MART ASSOCIATES, INC.",GENERAL AND OPERATIONS MANAGERS,"SENIOR MANAGER, PROJECT MANAGEMENT",Y,150467,2016,"SAN BRUNO, CALIFORNIA",-122.4110835,37.6304904
1228,CERTIFIED,"KBRNY, INC.",GENERAL AND OPERATIONS MANAGERS,VP OPERATIONS,Y,117437,2016,"NEW YORK, NEW YORK",-74.0059413,40.7127837
1236,CERTIFIED,"EPAM SYSTEMS, INC",GENERAL AND OPERATIONS MANAGERS,PROGRAM MANAGER,N,64875,2016,"CONSHOHOCKEN, PENNSYLVANIA",-75.3015714,40.0792766
1238,CERTIFIED,"EPAM SYSTEMS, INC",GENERAL AND OPERATIONS MANAGERS,"DIRECTOR, ACCOUNT MANAGEMENT",Y,101400,2016,"NEWTOWN, PENNSYLVANIA",-74.9322596,40.2283371
1239,CERTIFIED,"LITTELFUSE, INC.",GENERAL AND OPERATIONS MANAGERS,AUTOMOTIVE PLANT MANAGER,Y,141565,2016,"CHICAGO, ILLINOIS",-87.6297982,41.8781136
1240,CERTIFIED,PANDA EXPRESS INC.,GENERAL AND OPERATIONS MANAGERS,AREA COACH OPERATIONS-IN TRAINING,N,67475,2016,"HAYWARD, CALIFORNIA",-122.0807964,37.6688205
1241,CERTIFIED,"MORLIN HOSPITALITY MANAGEMENT, LLC",GENERAL AND OPERATIONS MANAGERS,HOSPITALITY OPERATIONS MANAGER,N,69513.6,2016,"MIAMI, FLORIDA",-80.1917902,25.7616798
1243,CERTIFIED,"EPAM SYSTEMS, INC",GENERAL AND OPERATIONS MANAGERS,SENIOR PROGRAM MANAGER,Y,109595,2016,"SAN FRANCISCO, CALIFORNIA",-122.4194155,37.7749295
1244,CERTIFIED,MCLAREN INDUSTRIES,GENERAL AND OPERATIONS MANAGERS,OPERATIONS MANAGER,N,65749,2016,"JACKSONVILLE, FLORIDA",-81.655651,30.3321838
1246,CERTIFIED,G4 ALLIANCE,GENERAL AND OPERATIONS MANAGERS,DIRECTOR OF OPERATIONS,N,48339,2016,"CHICAGO, ILLINOIS",-87.6297982,41.8781136
1247,CERTIFIED,"UDACITY, INC.",GENERAL AND OPERATIONS MANAGERS,HEAD OF EMEA,Y,113339,2016,"MOUNTAIN VIEW, CALIFORNIA",-122.0838511,37.3860517
1249,CERTIFIED,STONE CONNECTION GRANITE & CABINETRY LLC,GENERAL AND OPERATIONS MANAGERS,GENERAL MANAGER,N,52374,2016,"PITTSBURGH, PENNSYLVANIA",-79.9958864,40.4406248
1254,CERTIFIED,AJ TRUCCO INC.,GENERAL AND OPERATIONS MANAGERS,CHESTNUT OPERATIONAL MANAGER,Y,74402,2016,"BRONX, NEW YORK",-73.8648268,40.8447819
1257,CERTIFIED,TOP TRAVEL INC.,GENERAL AND OPERATIONS MANAGERS,OPERATIONAL MANAGER,Y,77625.6,2016,"ANNANDALE, VIRGINIA",-77.1963703,38.8303905
1259,CERTIFIED,AWOIT SYSTEMS INC,GENERAL AND OPERATIONS MANAGERS,DIRECTOR OF OPERATIONS,N,54059,2016,"ALPHARETTA, GEORGIA",-84.2940899,34.0753762
1261,CERTIFIED,"VOLVO CAR US OPERATIONS, INC.",GENERAL AND OPERATIONS MANAGERS,"DIRECTOR, REGIONAL FACILITY MANAGEMENT",Y,124821,2016,"SUMMERVILLE, SOUTH CAROLINA",NA,NA
1263,CERTIFIED,WORLD JOURNAL LLC,GENERAL AND OPERATIONS MANAGERS,OPERATIONS MANAGER,Y,74402,2016,"WHITESTONE, NEW YORK",-73.8095574,40.7920449
1264,CERTIFIED,"INRIX, INC.",GENERAL AND OPERATIONS MANAGERS,"VICE PRESIDENT AND GENERAL MANAGER, LATIN AMERICA",N,69514,2016,"MIAMI, FLORIDA",-80.1917902,25.7616798
1265,CERTIFIED,ABEES INC.,GENERAL AND OPERATIONS MANAGERS,EVENTS OPERATIONS MANAGER,N,50565,2016,"HONOLULU, HAWAII",-157.8583333,21.3069444
1267,CERTIFIED,"H-E-B GROCERY COMPANY, LP",GENERAL AND OPERATIONS MANAGERS,MANAGEMENT ASSOCIATE,N,52936,2016,"ROUND ROCK, TEXAS",-97.678896,30.5082551
1275,CERTIFIED,VISA U.S.A. INC.,GENERAL AND OPERATIONS MANAGERS,"SVP, PAYMENT SYSTEM RISK",Y,191360,2016,"FOSTER CITY, CALIFORNIA",-122.2710788,37.5585465
1276,CERTIFIED,"GRAND CANAL SOLUTIONS, INC.",GENERAL AND OPERATIONS MANAGERS,OPERATIONS MANAGER,Y,71282,2016,"SAN JOSE, CALIFORNIA",-121.8863286,37.3382082
1277,CERTIFIED,RYZAC INC.,GENERAL AND OPERATIONS MANAGERS,BUSINESS OPERATIONS MANAGER,Y,74402,2016,"NEW YORK, NEW YORK",-74.0059413,40.7127837
1278,CERTIFIED,"3PL LOGISTICS, INC.",GENERAL AND OPERATIONS MANAGERS,OPERATIONS MANAGER,N,57033.6,2016,"HAWTHORNE, CALIFORNIA",-118.3525748,33.9164032
1280,CERTIFIED,"BRAY INTERNATIONAL, INC.",GENERAL AND OPERATIONS MANAGERS,OPERATIONS ANALYST,N,64002,2016,"HOUSTON, TEXAS",-95.3698028,29.7604267
1283,CERTIFIED,THE HALAL GUYS FRANCHISE INC.,GENERAL AND OPERATIONS MANAGERS,"DIR. DEVELOPMENT, MIDDLE EAST REGIONAL OPERATIONS",Y,117436.8,2016,"ASTORIA, NEW YORK",-73.9234619,40.7643574
1285,CERTIFIED,"EPAM SYSTEMS, INC",GENERAL AND OPERATIONS MANAGERS,"DIRECTOR, TECHNOLOGY SOLUTIONS",Y,109595,2016,"SAN FRANCISCO, CALIFORNIA",-122.4194155,37.7749295
1287,CERTIFIED,VEGLAND FARM LLC,GENERAL AND OPERATIONS MANAGERS,OPERATIONS MANAGER,Y,74464,2016,"SOUTHAMPTON, NEW JERSEY",NA,NA
1288,CERTIFIED,"IMCS GROUP, INC.",GENERAL AND OPERATIONS MANAGERS,MANGER- STRATEGIC BUSINESS & TECHNICAL INTELLIGENCE,N,62629,2016,"IRVING, TEXAS",-96.9488945,32.8140177
1290,CERTIFIED,"RESCAN, INC.",GENERAL AND OPERATIONS MANAGERS,OPERATIONS MANAGER,Y,109595.2,2016,"REDWOOD CITY, CALIFORNIA",-122.2363548,37.4852152
1292,CERTIFIED,MARUTI MANAGEMENT INC.,GENERAL AND OPERATIONS MANAGERS,OPERATIONS MANAGER,N,49691.2,2016,"HARRISBURG, PENNSYLVANIA",-76.8867008,40.2731911
1298,CERTIFIED,"ANHEUSER-BUSCH INBEV SERVICES, LLC",GENERAL AND OPERATIONS MANAGERS,"GLOBAL MANAGER, ESTORE CAPABILITIES",Y,117437,2016,"NEW YORK, NEW YORK",-74.0059413,40.7127837
1299,CERTIFIED,"JACKSON INTERNATIONAL, INC.",GENERAL AND OPERATIONS MANAGERS,BUSINESS OPERATIONS MANAGER,N,57033.6,2016,"LONG BEACH, CALIFORNIA",-118.1937395,33.7700504
1305,CERTIFIED,FOUNDATION FOR THE GLOBAL COMPACT,GENERAL AND OPERATIONS MANAGERS,"CHIEF, LOCAL NETWORKS",Y,117437,2016,"NEW YORK, NEW YORK",-74.0059413,40.7127837
1306,CERTIFIED,"VIA TRANSPORTATION, INC.",GENERAL AND OPERATIONS MANAGERS,OPERATIONS PRINCIPAL,Y,117437,2016,"NEW YORK, NEW YORK",-74.0059413,40.7127837
1310,CERTIFIED,VICTOIRE US INC,GENERAL AND OPERATIONS MANAGERS,OPERATIONS MANAGER,Y,76897.6,2016,"NEW YORK, NEW YORK",-74.0059413,40.7127837
1312,CERTIFIED,"OCUSUN, LLC",GENERAL AND OPERATIONS MANAGERS,MERCHANDISING DIRECTOR,Y,109595,2016,"NOVATO, CALIFORNIA",-122.5697032,38.1074198
1318,CERTIFIED,"ATLANTIC TRADING & MARKETING, INC.",GENERAL AND OPERATIONS MANAGERS,CRUDE TRADING MANAGER,Y,138403,2016,"HOUSTON, TEXAS",-95.3698028,29.7604267
1321,CERTIFIED,"HNR, LLC",GENERAL AND OPERATIONS MANAGERS,GENERAL MANAGER,Y,70970,2016,"JOHNSTON, RHODE ISLAND",-71.512617,41.8205199
1322,CERTIFIED,"CABLE AND WIRELESS HOLDINGS, INC.",GENERAL AND OPERATIONS MANAGERS,VICE PRESIDENT OF BUSINESS SOLUTIONS,Y,168542,2016,"CORAL GABLES, FLORIDA",-80.2683838,25.72149
1324,CERTIFIED,"HALLIBURTON ENERGY SERVICES, INC.",GENERAL AND OPERATIONS MANAGERS,SR. HR OPERATIONS PARTNER,Y,75878,2016,"EL RENO, OKLAHOMA",NA,NA
1326,CERTIFIED,"BOOM SHAKALAKA, INC.",GENERAL AND OPERATIONS MANAGERS,OPERATIONS MANAGER,Y,74402,2016,"NEW YORK, NEW YORK",-74.0059413,40.7127837
1327,CERTIFIED,32ND DISTRICT AGRICULTURAL ASSOCIATION,GENERAL AND OPERATIONS MANAGERS,"VICE PRESIDENT, OPERATIONS",Y,116700,2016,"COSTA MESA, CALIFORNIA",-117.9186689,33.6411316
1328,CERTIFIED,"CABLE AND WIRELESS HOLDINGS, INC.",GENERAL AND OPERATIONS MANAGERS,VICE PRESIDENT OF INFORMATION TECHNOLOGY (CONSUMER GROUP),Y,168542,2016,"CORAL GABLES, FLORIDA",-80.2683838,25.72149
1331,CERTIFIED,ENAVATE HOLDINGS LLC,GENERAL AND OPERATIONS MANAGERS,OPERATIONS MANAGER,N,61568,2016,"ENGLEWOOD, COLORADO",-104.9877597,39.6477653
1333,CERTIFIED,QIANGSHENGMENG INC.,GENERAL AND OPERATIONS MANAGERS,OPERATIONS MANAGER,N,57158,2016,"SAN DIEGO, CALIFORNIA",-117.1610838,32.715738
1335,CERTIFIED,VI E-CELL TROPICAL TELECOM LTD,GENERAL AND OPERATIONS MANAGERS,OPERATIONS MANAGER,N,26686,2016,"ST. THOMAS, NA",-81.1826527,42.7777214
1336,CERTIFIED,"CONTENT ANALYTICS, INC.",GENERAL AND OPERATIONS MANAGERS,DIRECTOR OF GLOBAL BUSINESS DEVELOPMENT,N,68702,2016,"SAN FRANCISCO, CALIFORNIA",-122.4194155,37.7749295
1340,CERTIFIED,CNC WAREHOUSING LLC,GENERAL AND OPERATIONS MANAGERS,SENIOR OPERATIONS MANAGER,Y,86132.8,2016,"LINDEN, NEW JERSEY",-74.2445902,40.6220478
1344,CERTIFIED,"TRI-K INDUSTRIES, INC.",GENERAL AND OPERATIONS MANAGERS,SENIOR VP-INNOVATION & BUSINESS DEVELOPMENT,Y,170102,2016,"DENVILLE, NEW JERSEY",-74.4773775,40.8923212
1347,CERTIFIED,FATECLICK LLC,GENERAL AND OPERATIONS MANAGERS,MANAGER,N,41600,2016,"PORTLAND, OREGON",-122.6764816,45.5230622
1348,CERTIFIED,"ATLANTIC TELE-NETWORK, INC.",GENERAL AND OPERATIONS MANAGERS,DIRECTOR OF FIXED NETWORK ENGINEERING,Y,87526,2016,"ATLANTA, GEORGIA",-84.3879824,33.7489954
1350,CERTIFIED,"BLACKROCK PETROLEUM, INC.",GENERAL AND OPERATIONS MANAGERS,PROJECT MANAGER,Y,138403,2016,"HOUSTON, TEXAS",-95.3698028,29.7604267
1353,CERTIFIED,EPICREALM TECHNOLOGIES LLC,GENERAL AND OPERATIONS MANAGERS,OPERATIONS DIRECTOR,N,62629,2016,"DALLAS, TEXAS",-96.7969879,32.7766642
1355,CERTIFIED,"LUFKIN INDUSTRIES, LLC",GENERAL AND OPERATIONS MANAGERS,"SENIOR EXECUTIVE, BUSINESS OPERATIONS",Y,138403,2016,"HOUSTON, TEXAS",-95.3698028,29.7604267
1356,CERTIFIED,INTEGRA SOLUTIONS LLC,GENERAL AND OPERATIONS MANAGERS,OPERATIONS MANAGER,N,69514,2016,"MIAMI, FLORIDA",-80.1917902,25.7616798
1359,CERTIFIED,"CABLE AND WIRELESS HOLDINGS, INC.",GENERAL AND OPERATIONS MANAGERS,SENIOR VICE PRESIDENT OF BUSINESS TO BUSINESS (B2B),Y,168542,2016,"CORAL GABLES, FLORIDA",-80.2683838,25.72149
1360,CERTIFIED,PROMISED LAND REALTY GROUP LLC,GENERAL AND OPERATIONS MANAGERS,OPERATIONS MANAGER,Y,70116.8,2016,"QUINCY, MASSACHUSETTS",-71.0022705,42.2528772
1365,CERTIFIED,"VICI CAPITAL PARTNERS, LLC",GENERAL AND OPERATIONS MANAGERS,MANAGING DIRECTOR,Y,182291,2016,"CONCORD, MASSACHUSETTS",-71.3489484,42.4603719
1366,CERTIFIED,MOQUIN PRESS,GENERAL AND OPERATIONS MANAGERS,DIVISION BUSINESS MGR - PACKAGING/ PHARMACEUTICAL PRINTING,N,68702,2016,"BELMONT, CALIFORNIA",-122.2758008,37.5202145
1369,CERTIFIED,"SI-LOG, INC.",GENERAL AND OPERATIONS MANAGERS,DIRECTOR OF OPERATIONS,Y,74402,2016,"NEW YORK, NEW YORK",-74.0059413,40.7127837
1373,CERTIFIED,"HAKU MANAGEMENT GROUP, LLC.",GENERAL AND OPERATIONS MANAGERS,INTERNATIONAL OPERATIONS DIRECTOR,N,57034,2016,"POMONA, CALIFORNIA",-117.7499909,34.055103
1374,CERTIFIED,"EUREKA KING, INC.",GENERAL AND OPERATIONS MANAGERS,CHIEF EXECUTIVE OFFICER,N,68702,2016,"SAN FRANCISCO, CALIFORNIA",-122.4194155,37.7749295
1377,CERTIFIED,"DAVINCI GROUP HOLDINGS, INC.",GENERAL AND OPERATIONS MANAGERS,DIRECTOR OF OPERATIONS & LATIN AMERICAN EXPORTATION,N,62629,2016,"DALLAS, TEXAS",-96.7969879,32.7766642
1379,CERTIFIED,"NOBILITY, LLC",GENERAL AND OPERATIONS MANAGERS,DIRECTOR OF OPERATIONS,Y,78541,2016,"CHANDLER, ARIZONA",-111.8412502,33.3061605
1381,CERTIFIED,VOYAGE ONE GROUP INC,GENERAL AND OPERATIONS MANAGERS,E-COMMERCE BUSINESS AND OPERATIONS MANAGER,N,57034,2016,"CERRITOS, CALIFORNIA",-118.0647871,33.8583483
1382,CERTIFIED,HR COMPANIES LLC,GENERAL AND OPERATIONS MANAGERS,GENERAL MANAGER,N,54059,2016,"ALPHARETTA, GEORGIA",-84.2940899,34.0753762
1383,CERTIFIED,HEARTLAND GRANITE LLC,GENERAL AND OPERATIONS MANAGERS,BUSINESS MANAGER/OWNER,N,59675,2016,"WICHITA, KANSAS",-97.330053,37.6871761
1384,CERTIFIED,OSRAM SYLVANIA INC.,GENERAL AND OPERATIONS MANAGERS,AMERICAS' COMMODITY BUSINESS MANAGER,Y,70117,2016,"WILMINGTON, MASSACHUSETTS",-71.1724467,42.5481714
1385,CERTIFIED,"STRATEGISM, INC.",GENERAL AND OPERATIONS MANAGERS,VP - OPERATIONS AND STRATEGY,N,67475,2016,"FREMONT, CALIFORNIA",-121.9885719,37.5482697
1389,CERTIFIED,INCEPTECH USA INC.,GENERAL AND OPERATIONS MANAGERS,GENERAL MANAGER,Y,74401.6,2016,"NEW YORK, NEW YORK",-74.0059413,40.7127837
1390,CERTIFIED,THE NEGEV LLC,GENERAL AND OPERATIONS MANAGERS,HEAD OF OPERATIONS,N,68702,2016,"SAN FRANCISCO, CALIFORNIA",-122.4194155,37.7749295
1395,CERTIFIED,"SEAL SOFTWARE, INC.",GENERAL AND OPERATIONS MANAGERS,OPERATIONS MANAGER,N,68702,2016,"SAN FRANCISCO, CALIFORNIA",-122.4194155,37.7749295
1397,CERTIFIED,"AFS INTERCULTURAL PROGRAMS, INC.",GENERAL AND OPERATIONS MANAGERS,CHIEF PROGRAM AND RISK MANAGEMENT OFFICER,Y,160451,2016,"NEW YORK, NEW YORK",-74.0059413,40.7127837
1398,CERTIFIED,PLUGIN MIAMI LLC,GENERAL AND OPERATIONS MANAGERS,BRANCH MANAGER,N,65437,2016,"HALLANDALE BEACH, FLORIDA",-80.148379,25.9812024
1399,CERTIFIED,"MIC NETWORK, INC.",GENERAL AND OPERATIONS MANAGERS,GENERAL MANAGER OF HYPER,Y,117437,2016,"NEW YORK, NEW YORK",-74.0059413,40.7127837
1402,CERTIFIED,BLIPPAR LLC,GENERAL AND OPERATIONS MANAGERS,GLOBAL TECHNOLOGY CHIEF OF STAFF,Y,197475,2016,"MOUNTAIN VIEW, CALIFORNIA",-122.0838511,37.3860517
1406,CERTIFIED,"UBER TECHNOLOGIES, INC.",GENERAL AND OPERATIONS MANAGERS,REGIONAL OPERATIONS MANAGER,Y,77626,2016,"WASHINGTON, DISTRICT OF COLUMBIA",-77.0368707,38.9071923
1407,CERTIFIED,FIDELITY TECHNOLOGY GROUP LLC,GENERAL AND OPERATIONS MANAGERS,"VICE PRESIDENT, PRODUCT MANAGEMENT",Y,150467,2016,"SAN FRANCISCO, CALIFORNIA",-122.4194155,37.7749295
1408,CERTIFIED,VILLAGE PHARMACY CORP,GENERAL AND OPERATIONS MANAGERS,PHARMACY MANAGER SERVICES,Y,74401.6,2016,"NEW YORK, NEW YORK",-74.0059413,40.7127837
1414,CERTIFIED,"NADIA M. SADEK, M.D., P.A.",GENERAL AND OPERATIONS MANAGERS,MEDICAL OFFICE MANAGER,N,61568,2016,"OCOEE, FLORIDA",NA,NA
1419,CERTIFIED,"AL JAZEERA INTERNATIONAL (USA), INC.",GENERAL AND OPERATIONS MANAGERS,HEAD OF REGIONAL TECHNOLOGY,Y,111571,2016,"WASHINGTON, DISTRICT OF COLUMBIA",-77.0368707,38.9071923
1420,CERTIFIED,7ELEMENTS INC,GENERAL AND OPERATIONS MANAGERS,GENERAL MANAGER,Y,77313.6,2016,"NEWARK, DELAWARE",-75.7496572,39.6837226
1421,CERTIFIED,LOGITECH INC.,GENERAL AND OPERATIONS MANAGERS,"DIRECTOR, WW CUSTOMER CARE",Y,164528,2016,"NEWARK, CALIFORNIA",-122.0402399,37.5296593
1422,CERTIFIED,FORD MOTOR COMPANY,GENERAL AND OPERATIONS MANAGERS,PROGRAM MANAGEMENT SUPERVISOR,Y,115586,2016,"DEARBORN, MICHIGAN",-83.1763145,42.3222599
1423,CERTIFIED,8 TUXEDOS INC.,GENERAL AND OPERATIONS MANAGERS,GROUP GENERAL MANAGER,Y,74402,2016,"NEW YORK, NEW YORK",-74.0059413,40.7127837
1425,CERTIFIED,"GORGIAS, INC.",GENERAL AND OPERATIONS MANAGERS,CHIEF EXECUTIVE OFFICER,Y,74402,2016,"NEW YORK, NEW YORK",-74.0059413,40.7127837
1428,CERTIFIED,"TESTUTOR, INC.",GENERAL AND OPERATIONS MANAGERS,OPERATIONS MANAGER,N,52936,2016,"AUSTIN, TEXAS",-97.7430608,30.267153
1429,CERTIFIED,"FAITH THEOLOGICAL SEMINARY I, INC.",GENERAL AND OPERATIONS MANAGERS,BUSINESS MANAGER,N,61776,2016,"BALTIMORE, MARYLAND",-76.6121893,39.2903848
1430,CERTIFIED,"GARTNER, INC.",GENERAL AND OPERATIONS MANAGERS,"MANAGER, PEOPLE ANALYTICS - PROJECTS AND DELIVERY",Y,121160,2016,"STAMFORD, CONNECTICUT",-73.5387341,41.0534302
1436,CERTIFIED,"WISH WASH, LLC",GENERAL AND OPERATIONS MANAGERS,OPERATIONS MANAGER,N,52998.4,2016,"PENSACOLA, FLORIDA",-87.2169149,30.421309
1437,CERTIFIED,AUDACY CORPORATION,GENERAL AND OPERATIONS MANAGERS,HEAD OF CORPORATE STRATEGY,N,68702,2016,"PALO ALTO, CALIFORNIA",-122.1430195,37.4418834
1438,CERTIFIED,UNITED PRINTING EQUIPMENT & MATERIAL COPORATION,GENERAL AND OPERATIONS MANAGERS,GENERAL AND OPERATIONS MANAGER,N,48339,2016,"SKOKIE, ILLINOIS",-87.7416246,42.0324025
1440,CERTIFIED,"ADEQUALITY, INC.",GENERAL AND OPERATIONS MANAGERS,OPERATIONS MANAGER,N,68702,2016,"MENLO PARK, CALIFORNIA",-122.1817252,37.4529598
1441,CERTIFIED,"CONVATEC, INC.",GENERAL AND OPERATIONS MANAGERS,VICE PRESIDENT & GENERAL MANAGER GLOBAL & US OSTOMY,Y,122221,2016,"BRIDGEWATER, NEW JERSEY",-74.6049061,40.5939636
1442,CERTIFIED,"LUMINAR TECHNOLOGIES, INC.",GENERAL AND OPERATIONS MANAGERS,BUSINESS DEVELOPER,N,68702,2016,"PORTOLA VALLEY, CALIFORNIA",NA,NA
1446,CERTIFIED,PAREXEL INTERNATIONAL,GENERAL AND OPERATIONS MANAGERS,SENIOR PROJECT MANAGER,N,57034,2016,"GLENDALE, CALIFORNIA",-118.255075,34.1425078
1447,CERTIFIED,"EXYN TECHNOLOGIES, INC.",GENERAL AND OPERATIONS MANAGERS,CHIEF OPERATIONS MANAGER,Y,174429,2016,"PHILADELPHIA, PENNSYLVANIA",-75.1652215,39.9525839
1450,CERTIFIED,"RE-STREAM, CO.",GENERAL AND OPERATIONS MANAGERS,OPERATIONS DIRECTOR,Y,70117,2016,"WALTHAM, MASSACHUSETTS",-71.2356113,42.3764852
1453,CERTIFIED,GOOD SMOKES LLC,GENERAL AND OPERATIONS MANAGERS,STORES MANAGER,N,62629,2016,"DENTON, TEXAS",-97.1330683,33.2148412
1455,CERTIFIED,SS DRUGS INC.,GENERAL AND OPERATIONS MANAGERS,PHARMACY MANAGER SERVICES,Y,74401.6,2016,"NEW YORK, NEW YORK",-74.0059413,40.7127837
1457,CERTIFIED,"QUALITY CATERING FOR KIDS, INC.",GENERAL AND OPERATIONS MANAGERS,OPERATIONS MANAGER,N,48090,2016,"GURNEE, ILLINOIS",-87.9020186,42.3702996
1458,CERTIFIED,"PLURALSIGHT HOLDINGS, LLC",GENERAL AND OPERATIONS MANAGERS,"DIRECTOR OF OPERATIONS, CUSTOMER SUCCESS",Y,97344,2016,"FARMINGTON, UTAH",NA,NA
1460,CERTIFIED,SOLE COOL INC,GENERAL AND OPERATIONS MANAGERS,OPERATIONS MANAGER,N,62629,2016,"DALLAS, TEXAS",-96.7969879,32.7766642
1461,CERTIFIED,SOUTH FLORIDA LODGING LLC,GENERAL AND OPERATIONS MANAGERS,BUSINESS MANAGER,N,64230,2016,"BOYNTON BEACH, FLORIDA",-80.0905465,26.5317866
1463,CERTIFIED,MISFIT LLC,GENERAL AND OPERATIONS MANAGERS,"DIRECTOR OF PUBLISHING, PHILANTHROPY, STRATEGIC PARTNERSHIPS",N,58469,2016,"FARGO, NORTH DAKOTA",-96.7898034,46.8771863
1464,CERTIFIED,HENNESSEY INN AND SUITES INC.,GENERAL AND OPERATIONS MANAGERS,GENERAL MANAGER,N,46384,2016,"HENNESSEY, OKLAHOMA",NA,NA
1465,CERTIFIED,"TRINITY PLACE DEPARTMENT STORE, LE BUNNYS 61, LLC",GENERAL AND OPERATIONS MANAGERS,BUSINESS MANAGER,Y,74402,2016,"NEW YORK, NEW YORK",-74.0059413,40.7127837
1468,CERTIFIED,"MAGIC DEVELOPMENT, LLC",GENERAL AND OPERATIONS MANAGERS,GENERAL AND OPERATIONS MANAGER,N,61568,2016,"ORLANDO, FLORIDA",-81.3792365,28.5383355
1470,CERTIFIED,"THE GLOBAL EDGE CONSULTANTS, LLC",GENERAL AND OPERATIONS MANAGERS,NORTH AMERICA BUSINESS MANAGER,Y,101192,2016,"THE WOODLANDS, TEXAS",-95.4612625,30.1658207
1474,CERTIFIED,WIPRO LIMITED,GENERAL AND OPERATIONS MANAGERS,ACCOUNT DELIVERY HEAD,Y,106475,2016,"LINCOLN, NEBRASKA",-96.6851982,40.8257625
1477,CERTIFIED,MARSH USA INC.,GENERAL AND OPERATIONS MANAGERS,OPERATIONS MANAGER I,Y,74402,2016,"NEW YORK, NEW YORK",-74.0059413,40.7127837
1478,CERTIFIED,"AMERICAN STARGLOBE GROUP, INC.",GENERAL AND OPERATIONS MANAGERS,PROJECT & OPERATIONS MANAGER,N,53768,2016,"CHINO HILLS, CALIFORNIA",-117.7325848,33.9898188
1479,CERTIFIED,"PLEIN CLEANING SERVICES, INC.",GENERAL AND OPERATIONS MANAGERS,OPERATIONS MANAGER,N,62254,2016,"GAITHERSBURG, MARYLAND",-77.2013705,39.1434406
1480,CERTIFIED,MITEL (DELAWARE) INC.,GENERAL AND OPERATIONS MANAGERS,"SENIOR MANAGER, OPERATIONS",Y,100214,2016,"RICHARDSON, TEXAS",-96.7298519,32.9483335
1482,CERTIFIED,ANXIN INC,GENERAL AND OPERATIONS MANAGERS,OPERATIONS MANAGER,N,57034,2016,"SAN MARINO, CALIFORNIA",-118.1064585,34.121397
1484,CERTIFIED,SHUVASHREE INC,GENERAL AND OPERATIONS MANAGERS,GENERAL MANAGER,Y,74402,2016,"NEW YORK, NEW YORK",-74.0059413,40.7127837
1488,CERTIFIED,"IBPORT, INC.",GENERAL AND OPERATIONS MANAGERS,BUSINESS MANAGER,Y,74402,2016,"RIDGEFIELD, NEW JERSEY",-74.0087505,40.8342669
1489,CERTIFIED,PAREXEL INTERNATIONAL,GENERAL AND OPERATIONS MANAGERS,ASSOCIATE CLINICAL OPERATIONS LEADER,Y,101712,2016,"BILLERICA, MASSACHUSETTS",-71.2689461,42.5584218
1490,CERTIFIED,ABBOTT LABORATORIES,GENERAL AND OPERATIONS MANAGERS,"DIVISIONAL VICE PRESIDENT, SCIENTIFIC AND MEDICAL AFFAIRS",Y,112445,2016,"COLUMBUS, OHIO",-82.9987942,39.9611755
1491,CERTIFIED,PAREXEL INTERNATIONAL,GENERAL AND OPERATIONS MANAGERS,ASSOCIATE CLINICAL OPERATIONS LEADER,Y,101712,2016,"BILLERICA, MASSACHUSETTS",-71.2689461,42.5584218
1493,CERTIFIED,"MILGARD MANUFACTURING, INC.",GENERAL AND OPERATIONS MANAGERS,ASSOCIATE GENERAL MANAGER,Y,142334,2016,"TACOMA, WASHINGTON",-122.4442906,47.2528768
1496,CERTIFIED,"LAW OFFICES OF GUANG JUN GAO, LLP",GENERAL AND OPERATIONS MANAGERS,MANAGER,Y,74401.6,2016,"FLUSHING, NEW YORK",-73.833079,40.7674987
1498,CERTIFIED,FLUKE CORPORATION,GENERAL AND OPERATIONS MANAGERS,PRODUCT INNOVATION MANAGER,Y,100610,2016,"EVERETT, WASHINGTON",-122.2020794,47.9789848
1503,CERTIFIED,VIZQUEST VENTURES LLC,GENERAL AND OPERATIONS MANAGERS,"DIRECTOR, JAPANESE BUSINESS DEVELOPMENT",Y,111862,2016,"BRAINTREE, MASSACHUSETTS",-71.0040013,42.2079017
1509,CERTIFIED,SUSHI KO CHEVY CHASE LLC,GENERAL AND OPERATIONS MANAGERS,"MANAGER, OPERATIONS",Y,98717,2016,"CHEVY CHASE, MARYLAND",-77.0772052,38.9949153
1514,CERTIFIED,PANTHAL INC.,GENERAL AND OPERATIONS MANAGERS,DIRECTOR OF RESTAURANT OPERATIONS,Y,72821,2016,"ORANGE, CONNECTICUT",-73.0265277,41.278637
1515,CERTIFIED,OWLER INC.,GENERAL AND OPERATIONS MANAGERS,OPERATIONS MANAGER - PRODUCT DEVELOPMENT,Y,109595,2016,"SAN MATEO, CALIFORNIA",-122.3255254,37.5629917
1516,CERTIFIED,DYNAMOND BUILDING MAINTENANCE,GENERAL AND OPERATIONS MANAGERS,OPERATIONS MANAGER,N,37419,2016,"LINDON, UTAH",-111.7207608,40.3432857
1518,CERTIFIED,GRANISER LLC,GENERAL AND OPERATIONS MANAGERS,GENERAL & OPERATIONS MANAGER,Y,77625.6,2016,"ALEXANDRIA, VIRGINIA",-77.0469214,38.8048355
1519,CERTIFIED,"ATLANTIC TELE-NETWORK, INC.",GENERAL AND OPERATIONS MANAGERS,DIRECTOR OF FIXED NETWORK ENGINEERING,Y,111862,2016,"BEVERLY, MASSACHUSETTS",-70.880049,42.5584283
1521,CERTIFIED,PIRTEK USA LLC,GENERAL AND OPERATIONS MANAGERS,CEO,Y,143624,2016,"ROCKLEDGE, FLORIDA",-80.7269854,28.3164498
1525,CERTIFIED,OLD WESTBURY GOLF & COUNTRY CLUB INC.,GENERAL AND OPERATIONS MANAGERS,OPERATIONS MANAGER,N,69098,2016,"OLD WESTBURY, NEW YORK",-73.5995717,40.7887113
1526,CERTIFIED,58 PARTNERS FOUNDATION,GENERAL AND OPERATIONS MANAGERS,PROGRAM DIRECTOR,N,53664,2016,"COLUMBUS, OHIO",-82.9987942,39.9611755
1527,CERTIFIED,KINEMS INC.,GENERAL AND OPERATIONS MANAGERS,CEO,Y,74402,2016,"NEW YORK, NEW YORK",-74.0059413,40.7127837
1528,CERTIFIED,"EMSER TILE, LLC",GENERAL AND OPERATIONS MANAGERS,SOURCING AND QUALITY MANAGER,Y,122900,2016,"LOS ANGELES, CALIFORNIA",-118.2436849,34.0522342
1531,CERTIFIED,URBAN TILL CORP,GENERAL AND OPERATIONS MANAGERS,"DIRECTOR, RESEARCH & DEVELOPMENT",N,48339,2016,"CHICAGO, ILLINOIS",-87.6297982,41.8781136
1532,CERTIFIED,"JOHNS PLUMBING EXPRESS, INC.",GENERAL AND OPERATIONS MANAGERS,OPERATIONS MANAGER,N,52374,2016,"PITTSBURGH, PENNSYLVANIA",-79.9958864,40.4406248
1533,CERTIFIED,"PERFECT BUSINESS SERVICES, INC.",GENERAL AND OPERATIONS MANAGERS,MANAGER,N,62629,2016,"MCKINNEY, TEXAS",-96.6397822,33.1972465
1534,CERTIFIED,"JET.COM, INC.",GENERAL AND OPERATIONS MANAGERS,"SENIOR MANAGER, OPERATIONS AND SUPPLY CHAIN",Y,74402,2016,"HOBOKEN, NEW JERSEY",-74.0323626,40.7439905
1542,CERTIFIED,CONMETA INC,GENERAL AND OPERATIONS MANAGERS,CONTRACT ADMINISTRATOR,Y,74402,2016,"PARAMUS, NEW JERSEY",-74.0754189,40.9445428
1544,CERTIFIED,"ATLANTIC TRADING & MARKETING, INC.",GENERAL AND OPERATIONS MANAGERS,CRUDE TRADING MANAGER,Y,175594,2016,"HOUSTON, TEXAS",-95.3698028,29.7604267
1546,CERTIFIED,MIAMI SUNNY INC,GENERAL AND OPERATIONS MANAGERS,PROGRAM DESIGNER,N,69513.6,2016,"NORTH MIAMI BEACH, FLORIDA",-80.1625463,25.9331488
1548,CERTIFIED,A3R LLC,GENERAL AND OPERATIONS MANAGERS,PROJECT MANAGER,Y,77626,2016,"MCLEAN, VIRGINIA",-77.1772604,38.9338676
1549,CERTIFIED,ISLES INTERNATIONAL TRADING INC.,GENERAL AND OPERATIONS MANAGERS,MANAGING DIRECTOR,N,64230,2016,"BOCA RATON, FLORIDA",-80.1289321,26.3683064
1550,CERTIFIED,"WARREN INDUSTRIES, INC.",GENERAL AND OPERATIONS MANAGERS,MANAGER OF OPERATIONS,Y,86632,2016,"CHESTERFIELD, MICHIGAN",NA,NA
1551,CERTIFIED,"WARREN INDUSTRIES, INC.",GENERAL AND OPERATIONS MANAGERS,MANAGER OF OPERATIONS,Y,86632,2016,"CLINTON TOWNSHIP, MICHIGAN",-82.9195514,42.5868882
1553,CERTIFIED,"GUARDLAB, INC.",GENERAL AND OPERATIONS MANAGERS,"VICE PRESIDENT, OPERATIONS",Y,117437,2016,"NEW YORK, NEW YORK",-74.0059413,40.7127837
1554,CERTIFIED,ML LUBRICATION USA INC.,GENERAL AND OPERATIONS MANAGERS,TECHNICAL DIRECTOR,Y,104187,2016,"HAUPPAUGE, NEW YORK",-73.2026138,40.8256536
1557,CERTIFIED,BRASS MONKEY LLC,GENERAL AND OPERATIONS MANAGERS,GROUP GENERAL MANAGER,Y,74402,2016,"NEW YORK, NEW YORK",-74.0059413,40.7127837
1558,CERTIFIED,ANDERSON YEH PC,GENERAL AND OPERATIONS MANAGERS,LEGAL MANAGER,N,57033.6,2016,"SANTA MONICA, CALIFORNIA",-118.4911912,34.0194543
1561,CERTIFIED,PITON-SAMMAN LLP,GENERAL AND OPERATIONS MANAGERS,CHIEF OPERATIONS OFFICER,Y,77626,2016,"WASHINGTON, DISTRICT OF COLUMBIA",-77.0368707,38.9071923
1568,CERTIFIED,COLES BERMUDA LLC,GENERAL AND OPERATIONS MANAGERS,MANAGING DIRECTOR,Y,75192,2016,"HENDERSON, NEVADA",-114.9817213,36.0395247
1570,CERTIFIED,"NES GLOBAL, LLC",GENERAL AND OPERATIONS MANAGERS,SENIOR ACCOUNT MANAGER,N,64002,2016,"ORLANDO, FLORIDA",-81.3792365,28.5383355
1571,CERTIFIED,"RE-STREAM, CO.",GENERAL AND OPERATIONS MANAGERS,OPERATIONS DIRECTOR,Y,70117,2016,"WALTHAM, MASSACHUSETTS",-71.2356113,42.3764852
1573,CERTIFIED,OM RX SERVICES LLC,GENERAL AND OPERATIONS MANAGERS,STORE MANAGER,N,62629,2016,"GREENVILLE, TEXAS",-96.1108066,33.1384488
1574,CERTIFIED,DENTAL AMERICAN GROUP CORP.,GENERAL AND OPERATIONS MANAGERS,REGIONAL OPERATIONS DIRECTOR / DENTAL MANAGER,N,69514,2016,"HIALEAH, FLORIDA",-80.2781057,25.8575963
1578,CERTIFIED,EQUIPMENT DEPOT LTD.,GENERAL AND OPERATIONS MANAGERS,BRANCH GENERAL MANAGER,N,64002,2016,"HOUSTON, TEXAS",-95.3698028,29.7604267
1582,CERTIFIED,"JOBGENIE, INC.",GENERAL AND OPERATIONS MANAGERS,GENERAL MANAGER,Y,71282,2016,"PALO ALTO, CALIFORNIA",-122.1430195,37.4418834
1585,CERTIFIED,"AT&T SERVICES, INC.",GENERAL AND OPERATIONS MANAGERS,"EXECUTIVE DIRECTOR, INTERNATIONAL EXTERNAL AFFAIRS, CARIBBEA",Y,137800,2016,"DALLAS, TEXAS",-96.7969879,32.7766642
1587,CERTIFIED,NINEPOINT CAPITAL LLC,GENERAL AND OPERATIONS MANAGERS,OPERATIONS MANAGER,Y,117437,2016,"NEW YORK, NEW YORK",-74.0059413,40.7127837
1589,CERTIFIED,HONEYWELL INTERNATIONAL INC.,GENERAL AND OPERATIONS MANAGERS,VP EMERGING & ENTERPRISE SOLUTIONS,Y,212098,2016,"MORRIS PLAINS, NEW JERSEY",-74.4818698,40.8395922
1591,CERTIFIED,"BREAD & CHOCOLATE, LLC",GENERAL AND OPERATIONS MANAGERS,COUNTRY MANAGER,N,69514,2016,"SUNNY ISLES BEACH, FLORIDA",-80.1233802,25.9428707
1594,CERTIFIED,SEVENROOMS INC.,GENERAL AND OPERATIONS MANAGERS,MARKET RESEARCH ANALYST,Y,74402,2016,"NEW YORK, NEW YORK",-74.0059413,40.7127837
1595,CERTIFIED,"PANDA EXPRESS, INC.",GENERAL AND OPERATIONS MANAGERS,AREA COACH OPERATIONS-IN TRAINING,N,48090,2016,"VERNON HILLS, ILLINOIS",-87.9653565,42.2393323
1601,CERTIFIED,MAHI GRANITES PVT LTD CO.,GENERAL AND OPERATIONS MANAGERS,DISTRICT GENERAL MANAGER,N,64002,2016,"HOUSTON, TEXAS",-95.3698028,29.7604267
1602,CERTIFIED,"TORCSILL FOUNDATIONS, LLC",GENERAL AND OPERATIONS MANAGERS,PRESIDENT,Y,175594,2016,"PASADENA, TEXAS",-95.2091006,29.6910625
1603,CERTIFIED,LUMINA DATAMATICS INC,GENERAL AND OPERATIONS MANAGERS,OPERATIONS MANAGER (E-RETAIL SOLUTIONS & SERVICES),Y,70117,2016,"PLYMOUTH, MASSACHUSETTS",-70.6672621,41.9584457
1607,CERTIFIED,"LIHMIL, INC.",GENERAL AND OPERATIONS MANAGERS,GENERAL MANAGER,N,69285,2016,"KERNERSVILLE, NORTH CAROLINA",NA,NA
1611,CERTIFIED,"GLOBAL STRATEGIES, INC.",GENERAL AND OPERATIONS MANAGERS,OPERATIONS MANAGER,Y,70117,2016,"BOSTON, MASSACHUSETTS",-71.0588801,42.3600825
1613,CERTIFIED,ABRI FOUNDATION,GENERAL AND OPERATIONS MANAGERS,RESEARCH AND DEVELOPMENT MANAGER,Y,79414,2016,"AURORA, ILLINOIS",-88.3200715,41.7605849
1615,CERTIFIED,OMEGA-R INC,GENERAL AND OPERATIONS MANAGERS,HEAD OF BUSINESS DEVELOPMENT,Y,74402,2016,"NEW YORK, NEW YORK",-74.0059413,40.7127837
1616,CERTIFIED,"RAMAGDA ENTERPRISES, LLC",GENERAL AND OPERATIONS MANAGERS,HOTEL MANAGER,Y,86133,2016,"FLEMINGTON, NEW JERSEY",-74.8593318,40.5123258
1617,CERTIFIED,ARAPURA INC,GENERAL AND OPERATIONS MANAGERS,OPERATIONS MANAGER,N,60000,2016,"SOUTHPORT, CONNECTICUT",NA,NA
1620,CERTIFIED,ABRI FOUNDATION,GENERAL AND OPERATIONS MANAGERS,PROGRAMS MANAGER,Y,79414,2016,"AURORA, ILLINOIS",-88.3200715,41.7605849
1622,CERTIFIED,APPLE INC.,GENERAL AND OPERATIONS MANAGERS,ENGINEERING PROJECT MGR,Y,113339,2016,"CUPERTINO, CALIFORNIA",-122.0321823,37.3229978
1623,CERTIFIED,"ROBINSON BROTHERS PORK, INC.",GENERAL AND OPERATIONS MANAGERS,PRODUCTION MANAGER,N,42765,2016,"HOLDENVILLE, OKLAHOMA",NA,NA
1624,CERTIFIED,SOLE COOL INC,GENERAL AND OPERATIONS MANAGERS,OPERATIONS MANAGER,N,62629,2016,"DALLAS, TEXAS",-96.7969879,32.7766642
1629,CERTIFIED,QLEEK INC.,GENERAL AND OPERATIONS MANAGERS,CEO,Y,70117,2016,"BOSTON, MASSACHUSETTS",-71.0588801,42.3600825
1631,CERTIFIED,"TAPAD, INC.",GENERAL AND OPERATIONS MANAGERS,"VICE PRESIDENT, ADTECH",Y,117437,2016,"NEW YORK, NEW YORK",-74.0059413,40.7127837
1632,CERTIFIED,VH LISLE LLC,GENERAL AND OPERATIONS MANAGERS,GENERAL MANAGER,N,48339,2016,"LISLE, ILLINOIS",-88.0747875,41.801141
1634,CERTIFIED,"CELLPHIRE, INC.",GENERAL AND OPERATIONS MANAGERS,VICE PRESIDENT OPERATIONS,Y,135200,2016,"ROCKVILLE, MARYLAND",-77.1527578,39.0839973
1635,CERTIFIED,CAPITAL PLASTICS INTL INC,GENERAL AND OPERATIONS MANAGERS,GENERAL AND OPERATIONS MANAGER,N,64002,2016,"STAFFORD, TEXAS",-95.5577221,29.6160671
1637,CERTIFIED,"DIL MIL, INC",GENERAL AND OPERATIONS MANAGERS,VP OF OPERATIONS & STRATEGY,Y,109595,2016,"SAN FRANCISCO, CALIFORNIA",-122.4194155,37.7749295
1641,CERTIFIED,LAS VEGAS INDOOR SOCCER INC.,GENERAL AND OPERATIONS MANAGERS,DIRECTOR OF SPORTS-OPERATIONS,N,47944,2016,"LAS VEGAS, NEVADA",-115.1398296,36.1699412
1645,CERTIFIED,KWS GATEWAY RESEARCH CENTER LLC,GENERAL AND OPERATIONS MANAGERS,"PROGRAM MANAGER, CORN & OILCROPS AMERICAS",N,46051,2016,"ST. LOUIS, MISSOURI",-90.1994042,38.6270025
1648,CERTIFIED,PAYMENT TECHNOLOGIES LIMITED,GENERAL AND OPERATIONS MANAGERS,HEAD OF BUSINESS OPERATIONS-GLOBAL FINANCIAL SERVICES,Y,104645,2016,"TULSA, OKLAHOMA",-95.992775,36.1539816
1649,CERTIFIED,NBR WHEELS AND TIRES LLC,GENERAL AND OPERATIONS MANAGERS,OPERATIONS MANAGER,N,62629,2016,"DALLAS, TEXAS",-96.7969879,32.7766642
1650,CERTIFIED,"HOSTESS BRANDS SERVICES, LLC",GENERAL AND OPERATIONS MANAGERS,"DIRECTOR,  CAKE MANUFACTURING / CONTINUOUS IMPROVEMENT",Y,70928,2016,"EMPORIA, KANSAS",NA,NA
1651,CERTIFIED,"GUARDLAB, INC.",GENERAL AND OPERATIONS MANAGERS,"VICE PRESIDENT, OPERATIONS",Y,117437,2016,"NEW YORK, NEW YORK",-74.0059413,40.7127837
1656,CERTIFIED,"VIII HOTEL II TB INVESTORS, LLC",GENERAL AND OPERATIONS MANAGERS,GENERAL MANAGER,Y,160451,2016,"NEW YORK, NEW YORK",-74.0059413,40.7127837
1657,CERTIFIED,"KEOLIS AMERICA, INC.",GENERAL AND OPERATIONS MANAGERS,VP BOSTON RECOVERY PROGRAM,Y,182291,2016,"BOSTON, MASSACHUSETTS",-71.0588801,42.3600825
1658,CERTIFIED,"CHENIERE ENERGY, INC.",GENERAL AND OPERATIONS MANAGERS,OUTAGE PLANNING MANAGER,Y,117021,2016,"CAMERON, LOUISIANA",NA,NA
1661,CERTIFIED,THE ROCKEFELLER FOUNDATION,GENERAL AND OPERATIONS MANAGERS,"ASSOCIATE DIRECTOR, NETWORK ENGAGEMENT AND BELLAGIO PROGRAMS",Y,117437,2016,"NEW YORK, NEW YORK",-74.0059413,40.7127837
1662,CERTIFIED,SKAGWAY JEWELRY CO LLC,GENERAL AND OPERATIONS MANAGERS,DIRECTOR OF OPERATIONS,N,46654,2016,"ST. THOMAS, NA",-81.1826527,42.7777214
1663,CERTIFIED,SKAGWAY JEWELRY CO LLC,GENERAL AND OPERATIONS MANAGERS,DIRECTOR OF OPERATIONS,Y,72675,2016,"JUNEAU, ALASKA",-134.4197222,58.3019444
1665,CERTIFIED,"MPOWERD, INC.",GENERAL AND OPERATIONS MANAGERS,DIRECTOR OF OPERATIONS AND STRATEGIC PLANNING,Y,74402,2016,"NEW YORK, NEW YORK",-74.0059413,40.7127837
1666,CERTIFIED,SKAGWAY JEWELRY CO LLC,GENERAL AND OPERATIONS MANAGERS,DIRECTOR OF OPERATIONS,N,46654,2016,"ST. THOMAS, NA",-81.1826527,42.7777214
